[{"id":12,"latitude":41.338234330044465,"longitude":69.33935165405275,"address":"пр.Мирзо-Улугбек","pointTypeId":1,"pointTypeKey":"billboard","regionId":1,"districtId":3},{"id":18,"latitude":41.3577095260469,"longitude":69.27283287048341,"address":"ул Ахмада Дониша","pointTypeId":1,"pointTypeKey":"billboard","regionId":1,"districtId":10},{"id":14,"latitude":41.29127823607974,"longitude":69.1687846183777,"address":"ул.Фозилтепа","pointTypeId":1,"pointTypeKey":"billboard","regionId":1,"districtId":6},{"id":17,"latitude":41.284050909450414,"longitude":69.23575401306154,"address":"ул,Мукими","pointTypeId":1,"pointTypeKey":"billboard","regionId":1,"districtId":9},{"id":11,"latitude":41.325400713936794,"longitude":69.28270339965822,"address":"ул.А.Темура","pointTypeId":1,"pointTypeKey":"billboard","regionId":1,"districtId":10},{"id":13,"latitude":41.34007900486544,"longitude":69.27026867866518,"address":"ул,Кичик Халка йули","pointTypeId":1,"pointTypeKey":"billboard","regionId":1,"districtId":7},{"id":16,"latitude":41.26484804962568,"longitude":69.1884881258011,"address":"ул.Катта Хирмонтепа","pointTypeId":1,"pointTypeKey":"billboard","regionId":1,"districtId":6},{"id":22,"latitude":41.34002261819964,"longitude":69.25060272216798,"address":"ул.Нурафшон","pointTypeId":8,"pointTypeKey":"led_screen","regionId":1,"districtId":5},{"id":162,"latitude":41.26679157304755,"longitude":69.36638832092287,"address":"Ахангаранское шоссе, круг Рохат, кафе Родник","pointTypeId":1,"pointTypeKey":"billboard","regionId":1,"districtId":1},{"id":163,"latitude":41.266823013260456,"longitude":69.36612543900631,"address":"Ахангаранское  шоссе, круг Рохат, автосалон, на разделительной полосе","pointTypeId":1,"pointTypeKey":"billboard","regionId":1,"districtId":1},{"id":164,"latitude":41.27047275331424,"longitude":69.26048718360252,"address":"ул. Бобура пересечение с МКАД, возле моста аэропорта","pointTypeId":1,"pointTypeKey":"billboard","regionId":1,"districtId":11},{"id":165,"latitude":41.32891510171827,"longitude":69.3144875736588,"address":"МКАД,  от станции Салар в направлени ТЛЗ напротив автозаправкии","pointTypeId":1,"pointTypeKey":"billboard","regionId":1,"districtId":3},{"id":148,"latitude":41.31430839483646,"longitude":69.32862280103778,"address":"ул. Паркентская, после автозаправки, возле жд4/5","pointTypeId":1,"pointTypeKey":"billboard","regionId":1,"districtId":8},{"id":149,"latitude":41.29302428831802,"longitude":69.35582257073926,"address":"Ахангаранское шоссе, пересечение с ул. Чулпон, на разделительной полосе","pointTypeId":1,"pointTypeKey":"billboard","regionId":1,"districtId":8},{"id":151,"latitude":41.32530080530313,"longitude":69.24421584416974,"address":"ул. Фурката, напротив кафе \"Баян Ширин\"","pointTypeId":1,"pointTypeKey":"billboard","regionId":1,"districtId":7},{"id":152,"latitude":41.29125324158103,"longitude":69.22425377714585,"address":"ул. Мукимий, метро Новза, супермаркет Макро","pointTypeId":1,"pointTypeKey":"billboard","regionId":1,"districtId":9},{"id":153,"latitude":41.23898971072433,"longitude":69.33181134389967,"address":"ТКАД, рынок Куйлюк, напротив  жд 4","pointTypeId":1,"pointTypeKey":"billboard","regionId":1,"districtId":1},{"id":166,"latitude":41.30579350279385,"longitude":69.28327196297369,"address":"ул.Шахрисабз, напротив Вестминстерского Университета","pointTypeId":1,"pointTypeKey":"billboard","regionId":1,"districtId":2},{"id":160,"latitude":41.23766814807041,"longitude":69.21360325750227,"address":"ул. Новосергелинская, недоезжая автомобильного рынка","pointTypeId":1,"pointTypeKey":"billboard","regionId":1,"districtId":4},{"id":150,"latitude":41.29262847251492,"longitude":69.35612403937746,"address":"Ахангаранское шоссе, пересечение с ул. Чулпон, на разделительной полосе","pointTypeId":9,"pointTypeKey":"prizmatrons","regionId":1,"districtId":8},{"id":143,"latitude":41.31803717902408,"longitude":69.3135532071055,"address":"ул. Паркентская, на повороте на ул. Камаши. Ориентир - посольство Ирана ","pointTypeId":1,"pointTypeKey":"billboard","regionId":1,"districtId":8},{"id":147,"latitude":41.32444987995306,"longitude":69.25464740293366,"address":"ул. А Кадирий пересечение с ул. Абая. Ориентир - ТЮЗ","pointTypeId":1,"pointTypeKey":"billboard","regionId":1,"districtId":7},{"id":144,"latitude":41.31628593252081,"longitude":69.28192663538407,"address":"ул. Шахрисабз, ориентир - напростив Главпочтампта","pointTypeId":1,"pointTypeKey":"billboard","regionId":1,"districtId":10},{"id":167,"latitude":41.36014950794,"longitude":69.27778962665371,"address":"ул. А. Дониш пересечение с ул. Майкурган","pointTypeId":9,"pointTypeKey":"prizmatrons","regionId":1,"districtId":10},{"id":155,"latitude":41.28693948419783,"longitude":69.25501872552289,"address":"Ул. Ш. Руставели, пересечение с  А. Каххара, кафе  \"Кизил Гумбаз\"","pointTypeId":1,"pointTypeKey":"billboard","regionId":1,"districtId":11},{"id":156,"latitude":41.29330398570869,"longitude":69.27876376729732,"address":"ул. Ойбек, въезд со стороны ул. Нукус, около ж/д 59","pointTypeId":1,"pointTypeKey":"billboard","regionId":1,"districtId":2},{"id":157,"latitude":41.32222276188951,"longitude":69.28184936987508,"address":"пр-т Амира Темура, напротив здания \"Юлдуз-боулинг\"","pointTypeId":1,"pointTypeKey":"billboard","regionId":1,"districtId":10},{"id":158,"latitude":41.34033597937357,"longitude":69.20530344059955,"address":"ул. Беруний, возле ресторана \"Хувайдо\"","pointTypeId":1,"pointTypeKey":"billboard","regionId":1,"districtId":5},{"id":159,"latitude":41.26515633703482,"longitude":69.26501384862307,"address":"ул. Бобура, Аэропорт,мост","pointTypeId":1,"pointTypeKey":"billboard","regionId":1,"districtId":11},{"id":161,"latitude":41.257797692213806,"longitude":69.37979498282102,"address":"Ахангаранское шоссе, пересечение с ул. Х. Байкаро,  ориентир - Гольфклуб","pointTypeId":1,"pointTypeKey":"billboard","regionId":1,"districtId":1},{"id":168,"latitude":41.24241343995043,"longitude":69.17117500809702,"address":"МКАД, Чиланзарский вещевойрынок, новый мост, Ипподром","pointTypeId":1,"pointTypeKey":"billboard","regionId":1,"districtId":9},{"id":169,"latitude":41.25373421388715,"longitude":69.18870375592789,"address":"пр-т Бунедкор, напротив Собир-Рахимовского ГАИ","pointTypeId":1,"pointTypeKey":"billboard","regionId":1,"districtId":9},{"id":170,"latitude":41.29360055376792,"longitude":69.32305513421348,"address":"ул. Алимкент, метро Дустлик, автостанция","pointTypeId":1,"pointTypeKey":"billboard","regionId":1,"districtId":8},{"id":171,"latitude":41.29539424161023,"longitude":69.31801412854863,"address":"ул. Элбек, метро Дустлик","pointTypeId":1,"pointTypeKey":"billboard","regionId":1,"districtId":8},{"id":172,"latitude":41.29539424161023,"longitude":69.31801412854863,"address":"ул. Элбек, метро Дустлик","pointTypeId":1,"pointTypeKey":"billboard","regionId":1,"districtId":8},{"id":173,"latitude":41.26596927486536,"longitude":69.36492287116916,"address":"ТКАД пересечение с Ахангаранским шоссе,АЗС \"DP\"","pointTypeId":1,"pointTypeKey":"billboard","regionId":1,"districtId":1},{"id":174,"latitude":41.2444931834627,"longitude":69.29411781917862,"address":"ТКАД, развилка между Куйлик-5 и Куйлик-6","pointTypeId":1,"pointTypeKey":"billboard","regionId":1,"districtId":1},{"id":175,"latitude":41.28632521594055,"longitude":69.34633719734329,"address":"ул. Авиасозлар пересечение с ул. Бешарик","pointTypeId":1,"pointTypeKey":"billboard","regionId":1,"districtId":8},{"id":176,"latitude":41.3600464898142,"longitude":69.27840327777504,"address":"ул. Ахмад Дониш пересечение, 4-й квартал с ул. Майкурган ","pointTypeId":1,"pointTypeKey":"billboard","regionId":1,"districtId":10},{"id":177,"latitude":41.26847196655119,"longitude":69.20103232141847,"address":"пр-т Бунёдкор, рядом с Таможенным комитетом","pointTypeId":1,"pointTypeKey":"billboard","regionId":1,"districtId":9},{"id":178,"latitude":41.32115285963658,"longitude":69.23478304209455,"address":"ул. Самарканд Дарбоза, ориентир спорткомплекс ЖАР","pointTypeId":1,"pointTypeKey":"billboard","regionId":1,"districtId":7},{"id":179,"latitude":41.287894836770825,"longitude":69.19416797413363,"address":"МКАД, УзГУМЯ фр. филология, около ж/д 365","pointTypeId":1,"pointTypeKey":"billboard","regionId":1,"districtId":6},{"id":180,"latitude":41.27902720286628,"longitude":69.21827029868967,"address":"ул. Чиланзар,  напротив бывш. Американского посольства","pointTypeId":1,"pointTypeKey":"billboard","regionId":1,"districtId":9},{"id":142,"latitude":41.3383185064276,"longitude":69.28503361433762,"address":"пр-т Амира Темура, ориентир \"Интерконтиненталь\"","pointTypeId":9,"pointTypeKey":"prizmatrons","regionId":1,"districtId":10},{"id":154,"latitude":41.32018106203153,"longitude":69.2819609742452,"address":"пр-т Амира Темура, Алайский рынок","pointTypeId":9,"pointTypeKey":"prizmatrons","regionId":1,"districtId":10},{"id":146,"latitude":41.338185997250676,"longitude":69.2424294904673,"address":"ул. Карасарай, мемориальный комплекс Хаст Имам","pointTypeId":1,"pointTypeKey":"billboard","regionId":1,"districtId":5},{"id":181,"latitude":41.28356314691577,"longitude":69.19481385099839,"address":"МКАД, Фархадский рынок,магазины автозапчастей","pointTypeId":1,"pointTypeKey":"billboard","regionId":1,"districtId":6},{"id":182,"latitude":41.375342602908084,"longitude":69.29643091996334,"address":"Ахмад Дониш, Петушок","pointTypeId":1,"pointTypeKey":"billboard","regionId":1,"districtId":10},{"id":183,"latitude":41.29415442938456,"longitude":69.19778681210113,"address":"ул. Лутфий пересечение с ул. Чупонота, напротив Юридического колледжа","pointTypeId":1,"pointTypeKey":"billboard","regionId":1,"districtId":6},{"id":184,"latitude":41.28883072501824,"longitude":69.2202422801033,"address":"пр-т Бунёдкор, метро Новза, жд№9","pointTypeId":1,"pointTypeKey":"billboard","regionId":1,"districtId":9},{"id":185,"latitude":41.29616194651225,"longitude":69.25011878886127,"address":"ул. Бобура, недоезжая NEXT, ориентир - офис DHL","pointTypeId":1,"pointTypeKey":"billboard","regionId":1,"districtId":11},{"id":186,"latitude":41.27024709049262,"longitude":69.21080735360678,"address":"МКАД пересечение с ул. Чиланзарская, ориентир -мебельный салон Comfort Elite","pointTypeId":1,"pointTypeKey":"billboard","regionId":1,"districtId":9},{"id":187,"latitude":41.35423373081225,"longitude":69.3694031238556,"address":"массив Феруза, ул. Феруза,  ориентир Дока-хлеб","pointTypeId":1,"pointTypeKey":"billboard","regionId":1,"districtId":3},{"id":188,"latitude":41.35539028857314,"longitude":69.3350751136083,"address":"ул. Богишамол, СамПИ, напротив оптового рынка","pointTypeId":1,"pointTypeKey":"billboard","regionId":1,"districtId":3},{"id":189,"latitude":41.30442026581463,"longitude":69.19356501494802,"address":"МКАД, Арча куча, около АЗС Арбос","pointTypeId":1,"pointTypeKey":"billboard","regionId":1,"districtId":6},{"id":190,"latitude":41.29995321736228,"longitude":69.2303102167324,"address":"ул. Байналминал, детский Дом№22, кафе Камолон","pointTypeId":1,"pointTypeKey":"billboard","regionId":1,"districtId":7},{"id":191,"latitude":41.285919628306694,"longitude":69.25087521701782,"address":"ул. Шохжахон пересечение с ул. Аския, рынок Аския ","pointTypeId":1,"pointTypeKey":"billboard","regionId":1,"districtId":11},{"id":192,"latitude":41.24919428859562,"longitude":69.25788995234566,"address":"ул. Кумарик,  аэропорт местных авиалиний","pointTypeId":1,"pointTypeKey":"billboard","regionId":1,"districtId":4},{"id":193,"latitude":41.26413679198946,"longitude":69.25917288754682,"address":"ул. Талипова, по дороге в аэропорт местных авиалиний","pointTypeId":1,"pointTypeKey":"billboard","regionId":1,"districtId":11},{"id":194,"latitude":41.33479617746145,"longitude":69.26356316743154,"address":"ул.Нурафшан, ориентир - издательство Г. Гулома","pointTypeId":1,"pointTypeKey":"billboard","regionId":1,"districtId":5},{"id":195,"latitude":41.33677155574672,"longitude":69.32272409323056,"address":"ул. Зиёлилар, Военный госпиталь, около железнодорожного переезда","pointTypeId":1,"pointTypeKey":"billboard","regionId":1,"districtId":3},{"id":196,"latitude":41.33651185650767,"longitude":69.26045168063467,"address":"ул. Нуравшон, в направлении перекрестка с ул. Себзор, частный сектор","pointTypeId":1,"pointTypeKey":"billboard","regionId":1,"districtId":5},{"id":197,"latitude":41.34683566137304,"longitude":69.32467692790279,"address":"ул. Богишамол пересечение с ул. Дурмон Йули, возле завода Xayat","pointTypeId":1,"pointTypeKey":"billboard","regionId":1,"districtId":3},{"id":198,"latitude":41.33770235806514,"longitude":69.22340309507095,"address":"ул. Нурафшон пересечение с ул. Фаробий, ","pointTypeId":1,"pointTypeKey":"billboard","regionId":1,"districtId":5},{"id":200,"latitude":41.320639651864205,"longitude":69.34294365047616,"address":"ул. Олтинтепа пересечение с ул. Саёхат","pointTypeId":1,"pointTypeKey":"billboard","regionId":1,"districtId":3},{"id":201,"latitude":41.29253244873144,"longitude":69.2068125171693,"address":"ул. КАтартал-2, автомйка","pointTypeId":1,"pointTypeKey":"billboard","regionId":1,"districtId":9},{"id":202,"latitude":41.326953954121585,"longitude":69.24643028128098,"address":"ул. Себзор,  метро  Г. Гулом, спуск с моста","pointTypeId":1,"pointTypeKey":"billboard","regionId":1,"districtId":5},{"id":203,"latitude":41.32477226102806,"longitude":69.30450010112898,"address":"ул. Оккургон пересечение с ул. Осиё, у входа на стадион \"Ёшлик\"","pointTypeId":1,"pointTypeKey":"billboard","regionId":1,"districtId":3},{"id":204,"latitude":41.21197170195011,"longitude":69.2721462249756,"address":"Оптовый рынок Сергели, массив Строитель","pointTypeId":1,"pointTypeKey":"billboard","regionId":1,"districtId":4},{"id":205,"latitude":41.3066879434012,"longitude":69.2918143285013,"address":"ул. Садыкова, около ресторана \"Amore Mio\"","pointTypeId":2,"pointTypeKey":"super_sites","regionId":1,"districtId":8},{"id":213,"latitude":41.330141316620605,"longitude":69.24820161557095,"address":"ул. А.  Кодирий пересечение с ул. Себзор, Ганга, на торце ж/д №1","pointTypeId":2,"pointTypeKey":"super_sites","regionId":1,"districtId":7},{"id":214,"latitude":41.32940664880854,"longitude":69.23953908897144,"address":"ул. Заркайнар","pointTypeId":8,"pointTypeKey":"led_screen","regionId":1,"districtId":7},{"id":217,"latitude":41.33055540033312,"longitude":69.24639706364702,"address":"ул.А.Кодирий с ул. Г. Гулома, Ганга, на крыше ж/д№1","pointTypeId":8,"pointTypeKey":"led_screen","regionId":1,"districtId":7},{"id":218,"latitude":39.66598488903854,"longitude":66.94795095229253,"address":"пр-т Алишера Навои пересечение с ул. Огахий, ориентир - горбольница","pointTypeId":1,"pointTypeKey":"billboard","regionId":10,"districtId":139},{"id":219,"latitude":39.63966239829416,"longitude":66.96256690091313,"address":"ул. Намозгох пересечение с ул. Мукимий на разделительной полосе, ориентир - мечеть","pointTypeId":1,"pointTypeKey":"billboard","regionId":10,"districtId":139},{"id":220,"latitude":39.66736486341015,"longitude":66.93738519297648,"address":"ул. Гагарина пересечение с ул. Фарход, ориентир - МЧС","pointTypeId":1,"pointTypeKey":"billboard","regionId":10,"districtId":139},{"id":221,"latitude":39.66339654060218,"longitude":66.93703329373945,"address":"ул. Гагарина, ориентир - офис Билайн","pointTypeId":1,"pointTypeKey":"billboard","regionId":10,"districtId":139},{"id":222,"latitude":39.67613015166869,"longitude":67.04571105588764,"address":"Ташкентский тракт, пост ГАИ на выезде из города","pointTypeId":1,"pointTypeKey":"billboard","regionId":10,"districtId":139},{"id":223,"latitude":39.683696853467175,"longitude":67.00505303584583,"address":"Кольцевая автодорога, ориентир - рынок автозапчастей","pointTypeId":1,"pointTypeKey":"billboard","regionId":10,"districtId":139},{"id":216,"latitude":41.337528675028246,"longitude":69.25734472527041,"address":"ул. Нурафшан пересечение с ул. Себзор","pointTypeId":8,"pointTypeKey":"led_screen","regionId":1,"districtId":5},{"id":211,"latitude":41.313778175913654,"longitude":69.31394040867156,"address":"пр-т М-Улугбек, перекресток Шастри,  на крыше ж/д №5","pointTypeId":12,"pointTypeKey":"roof_constructors","regionId":1,"districtId":8},{"id":210,"latitude":41.33097836716949,"longitude":69.22218847055258,"address":"пр-т Беруний,на крыше ж/д №1В, напротив кинотеатра Гунча","pointTypeId":12,"pointTypeKey":"roof_constructors","regionId":1,"districtId":5},{"id":209,"latitude":41.29075778092876,"longitude":69.22334058301259,"address":"пр-т Бунёдкор пересечение с ул. Муукимий, ориентир - Макро, на крыше ж/д №1","pointTypeId":12,"pointTypeKey":"roof_constructors","regionId":1,"districtId":9},{"id":208,"latitude":41.32374274008977,"longitude":69.28175923947778,"address":"пр-т Амира Темура, на крыше 16-этажки, напротив Юлдуз-боулинг","pointTypeId":12,"pointTypeKey":"roof_constructors","regionId":1,"districtId":10},{"id":207,"latitude":41.34409038809254,"longitude":69.20757150210976,"address":"ул. Фаробий пересечение с ул. Беруний, на крыше ж/д №5","pointTypeId":12,"pointTypeKey":"roof_constructors","regionId":1,"districtId":5},{"id":206,"latitude":41.35740586222269,"longitude":69.38263177589116,"address":"ул. Юзработ на крыше ж/д №12, ориентир - рынок ТТЗ","pointTypeId":12,"pointTypeKey":"roof_constructors","regionId":1,"districtId":3},{"id":199,"latitude":41.30484151248006,"longitude":69.307989093789,"address":"ул. Махтумкули пересечение с пр-том М-Улугбека, ориентир - перекресток Ташсельмаш","pointTypeId":1,"pointTypeKey":"billboard","regionId":1,"districtId":8},{"id":224,"latitude":39.643717185744485,"longitude":67.00063276353961,"address":"ул. Педжикентская,  автостанция Кафтархона","pointTypeId":1,"pointTypeKey":"billboard","regionId":10,"districtId":139},{"id":225,"latitude":39.66615751793381,"longitude":66.90681981788146,"address":"ул. Мирзо Бедил, ориентир - металл-строй базар","pointTypeId":1,"pointTypeKey":"billboard","regionId":10,"districtId":139},{"id":226,"latitude":39.667489671485825,"longitude":66.9431487359452,"address":"пр-т Алишера Навои, ориентир  - швейная фабрика 8 марта","pointTypeId":1,"pointTypeKey":"billboard","regionId":10,"districtId":139},{"id":228,"latitude":39.668380848302284,"longitude":66.96930043524401,"address":"ул. Рудакий пересечение с ул. Дагбитская ","pointTypeId":1,"pointTypeKey":"billboard","regionId":10,"districtId":139},{"id":229,"latitude":39.6376588162599,"longitude":66.91923310380957,"address":"Саттепо, ул. Туркистон, ориентир - Кишлок Курилиш Банк","pointTypeId":1,"pointTypeKey":"billboard","regionId":10,"districtId":139},{"id":230,"latitude":39.646926492785404,"longitude":66.92391629378692,"address":"ул. Амир Темур, ориентир - Медиа Парк","pointTypeId":1,"pointTypeKey":"billboard","regionId":10,"districtId":139},{"id":231,"latitude":39.65040126325406,"longitude":66.96132228245688,"address":"ул.Шохрух Мирзо (дорога на крытый рынок), ориентир - Центробанк","pointTypeId":1,"pointTypeKey":"billboard","regionId":10,"districtId":139},{"id":232,"latitude":39.65060443819466,"longitude":66.96085452750859,"address":"ул. Шохрух Мирзо (дорога на крытый рынок), ориентир - Институт экономики и сервиса","pointTypeId":1,"pointTypeKey":"billboard","regionId":10,"districtId":139},{"id":233,"latitude":39.63995483015754,"longitude":66.91927920312358,"address":"Саттепо, ул. Туркестанская, ориентир - спорткомплекс","pointTypeId":1,"pointTypeKey":"billboard","regionId":10,"districtId":139},{"id":234,"latitude":39.65585224937479,"longitude":66.91937899416713,"address":"ул. Али Кушчи, ориентир - кафе Париж","pointTypeId":1,"pointTypeKey":"billboard","regionId":10,"districtId":139},{"id":235,"latitude":39.66879359126721,"longitude":66.96832811947647,"address":"ул. Рудакий, ориентир - Медицинский колледж","pointTypeId":1,"pointTypeKey":"billboard","regionId":10,"districtId":139},{"id":236,"latitude":39.68128025100749,"longitude":66.96392301701012,"address":"ул. Мотрид, выезд с ул. Дагбитская","pointTypeId":1,"pointTypeKey":"billboard","regionId":10,"districtId":139},{"id":237,"latitude":39.67154039579248,"longitude":66.95922912014915,"address":"ул. Рудакий, ориентир - строительный рынок","pointTypeId":1,"pointTypeKey":"billboard","regionId":10,"districtId":139},{"id":238,"latitude":39.64379738068039,"longitude":66.919705149989,"address":"ул. Туркестанская пересечение с ул. Ф. Махмудова, ориентир  - Эркин Савдо","pointTypeId":1,"pointTypeKey":"billboard","regionId":10,"districtId":139},{"id":247,"latitude":39.66492368248732,"longitude":66.99313116456821,"address":"ул. Шохи-Зинда, ориентир - завод кожаных изделий","pointTypeId":1,"pointTypeKey":"billboard","regionId":10,"districtId":139},{"id":248,"latitude":39.71256086156811,"longitude":66.94920725584137,"address":"Самаркандская кольцевая дорога.*Лойиш\", Дорога в сторону Мемориального комплекса имама Аль-Бухари","pointTypeId":1,"pointTypeKey":"billboard","regionId":10,"districtId":139},{"id":249,"latitude":39.66337753614546,"longitude":66.93312798893606,"address":"ул. Мирзо Улугбек, ориентир - магазин Зендер","pointTypeId":1,"pointTypeKey":"billboard","regionId":10,"districtId":139},{"id":250,"latitude":39.662666433983134,"longitude":66.93440043816476,"address":"ул. МирзоУлугбек, ориентир - Сельхоз Институт","pointTypeId":1,"pointTypeKey":"billboard","regionId":10,"districtId":139},{"id":251,"latitude":39.66367166938777,"longitude":66.97093428594194,"address":"ул. Дагбитская, Чораха, ориентир - напротив гостиницы  Эмирхан","pointTypeId":1,"pointTypeKey":"billboard","regionId":10,"districtId":139},{"id":252,"latitude":39.68344924921941,"longitude":66.92911649787273,"address":"ул. Беруний, напротив Ж/Д рынка","pointTypeId":1,"pointTypeKey":"billboard","regionId":10,"districtId":139},{"id":253,"latitude":39.67033471773025,"longitude":66.96125803693334,"address":"ул. Рудакий, ориентир - кирпичный завод","pointTypeId":1,"pointTypeKey":"billboard","regionId":10,"districtId":139},{"id":227,"latitude":39.660573519361684,"longitude":66.93673825074781,"address":"ул. Гагарина, перекресток Богишамол","pointTypeId":1,"pointTypeKey":"billboard","regionId":10,"districtId":139},{"id":254,"latitude":39.65773546985612,"longitude":66.9481118908126,"address":"ул. МирзоУлугбек, ориентир - стадион Динамо","pointTypeId":1,"pointTypeKey":"billboard","regionId":10,"districtId":139},{"id":255,"latitude":39.66913642153743,"longitude":66.93711698055269,"address":"ул. Гагарина, ориентир - школа №7","pointTypeId":1,"pointTypeKey":"billboard","regionId":10,"districtId":139},{"id":256,"latitude":39.67016630807982,"longitude":66.9376803009638,"address":"ул. Гагарина, ориентир - Азиз базар","pointTypeId":1,"pointTypeKey":"billboard","regionId":10,"districtId":139},{"id":258,"latitude":39.681028625284675,"longitude":66.92812079499875,"address":"ул. Беруний, ориентир - Ж/Д ","pointTypeId":1,"pointTypeKey":"billboard","regionId":10,"districtId":139},{"id":262,"latitude":39.65044997224106,"longitude":66.95498156893204,"address":"ул. Жомий на пересечении с ул. Фирдавсий, ориентир - Русский культурный центр","pointTypeId":1,"pointTypeKey":"billboard","regionId":10,"districtId":139},{"id":263,"latitude":39.67079875127635,"longitude":66.92121144718357,"address":"ул. Спитаменшох, ориентир - Пединститут ","pointTypeId":1,"pointTypeKey":"billboard","regionId":10,"districtId":139},{"id":264,"latitude":39.67543732096809,"longitude":66.91532243774144,"address":"ул. Спитаменшох,ОблГАИ, поворот на травматологию","pointTypeId":1,"pointTypeKey":"billboard","regionId":10,"districtId":139},{"id":265,"latitude":39.659383436976974,"longitude":66.97117995206774,"address":"ул. Дагбитская,ориентир - собес, мост","pointTypeId":1,"pointTypeKey":"billboard","regionId":10,"districtId":139},{"id":266,"latitude":39.68186894447905,"longitude":67.00445652008058,"address":"Кольцевая дорога, рынок автозапчастей","pointTypeId":1,"pointTypeKey":"billboard","regionId":10,"districtId":139},{"id":267,"latitude":39.66753841708541,"longitude":66.93708800295632,"pointTypeId":4,"pointTypeKey":"arches_and_banners","regionId":10,"districtId":139},{"id":268,"latitude":39.662571464894974,"longitude":66.92206012417965,"address":"ул. Буюк Ипак Йули на пересечении с ул. Фитрат, ориентир - эндокринология","pointTypeId":4,"pointTypeKey":"arches_and_banners","regionId":10,"districtId":139},{"id":239,"latitude":39.66668525493158,"longitude":66.93709337617942,"address":"ул. Гагарина, напротив МЧС","pointTypeId":1,"pointTypeKey":"billboard","regionId":10,"districtId":139},{"id":241,"latitude":39.68011431847596,"longitude":66.90465688705446,"address":"пр-т Спитамен, автостанция Хазора ","pointTypeId":1,"pointTypeKey":"billboard","regionId":10,"districtId":139},{"id":243,"latitude":39.64799896736563,"longitude":66.98954987023829,"address":"ул. Педжикентская, ориентир - школа №5","pointTypeId":1,"pointTypeKey":"billboard","regionId":10,"districtId":139},{"id":244,"latitude":39.66509708972386,"longitude":66.94994437757619,"address":"пр-т Навои, ориентир - 1-я горбольница","pointTypeId":1,"pointTypeKey":"billboard","regionId":10,"districtId":139},{"id":242,"latitude":39.62320830913388,"longitude":66.99340582459102,"address":"ул. Термез йули, ориентир - Окмачит","pointTypeId":1,"pointTypeKey":"billboard","regionId":10,"districtId":139},{"id":246,"latitude":39.65445710704993,"longitude":66.95844054222108,"address":"ул. Шохруха Мирзо, ориентир - крытый рынок","pointTypeId":1,"pointTypeKey":"billboard","regionId":10,"districtId":139},{"id":245,"latitude":39.61658525118381,"longitude":66.95593214791822,"address":"Сельский рынок, ориентир - поликлиника","pointTypeId":1,"pointTypeKey":"billboard","regionId":10,"districtId":139},{"id":257,"latitude":39.680600602499524,"longitude":66.93629191108317,"address":"ул. Рудакий, ориентир - Узгазоил","pointTypeId":1,"pointTypeKey":"billboard","regionId":10,"districtId":139},{"id":259,"latitude":39.66458915725991,"longitude":66.95077049795276,"address":"пр-т Алишера Навои, ориентир - отель Шахерезада","pointTypeId":1,"pointTypeKey":"billboard","regionId":10,"districtId":139},{"id":260,"latitude":39.650015435220496,"longitude":66.94644139249404,"address":"ул. Амира Темура, ориентир - академический лицей ","pointTypeId":1,"pointTypeKey":"billboard","regionId":10,"districtId":139},{"id":313,"latitude":41.29080329944049,"longitude":69.2842171823752,"address":"МКАД, Северный вокзал","pointTypeId":1,"pointTypeKey":"billboard","regionId":1,"districtId":2},{"id":269,"latitude":39.67905162497443,"longitude":66.93983674049379,"address":"ул. Гагарина на пересечение с ул. Рудакий, ориентир - металл базар","pointTypeId":4,"pointTypeKey":"arches_and_banners","regionId":10,"districtId":139},{"id":240,"latitude":39.67589407619232,"longitude":66.9146775860233,"address":"пр-т Спитамен, ориентир - центр подготовки специалистов","pointTypeId":1,"pointTypeKey":"billboard","regionId":10,"districtId":139},{"id":261,"latitude":39.64802532073526,"longitude":66.95014927636835,"address":"ул. Лутфий на пересечении с ул. Фирдавсий, ориентир - стоматология","pointTypeId":1,"pointTypeKey":"billboard","regionId":10,"districtId":139},{"id":270,"latitude":41.337506152643655,"longitude":69.25736618228778,"address":"ул. Нурафшан пересечение с ул. Себзор, ориентир - новостройки","pointTypeId":1,"pointTypeKey":"billboard","regionId":1,"districtId":5},{"id":271,"latitude":41.24890877588668,"longitude":69.26551129415591,"address":"круг  аэропорта новый терминал (местные авиалинии)","pointTypeId":1,"pointTypeKey":"billboard","regionId":1,"districtId":4},{"id":272,"latitude":41.24955428334134,"longitude":69.25744771957399,"address":"ул. Кумарик, ориентир - аэропорт терминал-, местные авиалинии","pointTypeId":1,"pointTypeKey":"billboard","regionId":1,"districtId":4},{"id":276,"latitude":41.32434918313056,"longitude":69.26453821203543,"address":"ул. А. Кодирий, ориентир - ресторан Гранд Осиё","pointTypeId":1,"pointTypeKey":"billboard","regionId":1,"districtId":7},{"id":278,"latitude":41.35748407583429,"longitude":69.38173695735628,"address":"ул. Юзработ, недоезжая магазина Корзинка.уз","pointTypeId":1,"pointTypeKey":"billboard","regionId":1,"districtId":3},{"id":279,"latitude":41.29268406546854,"longitude":69.27910279914742,"address":"ул. Нукус пересечение с ул.Ойбек, напротив Шох Мед Цетра","pointTypeId":1,"pointTypeKey":"billboard","regionId":1,"districtId":2},{"id":280,"latitude":41.31095926036283,"longitude":69.25335788600677,"address":"ул. Афросиёб пересечение с пр-том И. Каримова, ориентир - Хумо Арена","pointTypeId":1,"pointTypeKey":"billboard","regionId":1,"districtId":9},{"id":281,"latitude":41.320949846530645,"longitude":69.25481271680708,"address":"ул. Олмазор пересечение с ул. А.Навои,ориентир - метро Пахтакор","pointTypeId":1,"pointTypeKey":"billboard","regionId":1,"districtId":7},{"id":282,"latitude":41.320500484676096,"longitude":69.24221705512282,"address":"ул. Фуркат, ориентир - Равнакбанк","pointTypeId":1,"pointTypeKey":"billboard","regionId":1,"districtId":7},{"id":273,"latitude":41.34208487009841,"longitude":69.24150464658227,"address":"ул. Нурафшан пересечение с ул. Карасарай, ориентир - частный сектор","pointTypeId":1,"pointTypeKey":"billboard","regionId":1,"districtId":5},{"id":275,"latitude":41.30509057832028,"longitude":69.30819514804655,"address":"ул. Махтумкули, ТЦ Атриум","pointTypeId":1,"pointTypeKey":"billboard","regionId":1,"districtId":8},{"id":283,"latitude":41.31558810967602,"longitude":69.32175636856685,"address":"ул. Паркентская, напротив Паркентского рынка","pointTypeId":1,"pointTypeKey":"billboard","regionId":1,"districtId":8},{"id":284,"latitude":41.30112813512999,"longitude":69.2325783228023,"address":"пр-т Бунедкор, мост Камолон","pointTypeId":1,"pointTypeKey":"billboard","regionId":1,"districtId":7},{"id":285,"latitude":41.31824241834018,"longitude":69.24206252910197,"address":"ул. Фуркат, напротив мебельных магазинов","pointTypeId":1,"pointTypeKey":"billboard","regionId":1,"districtId":7},{"id":286,"latitude":41.29237961500459,"longitude":69.27953422895494,"address":"ул. Нукус пересечение с ул. Ойбек, на стороне Шох Мед центра","pointTypeId":1,"pointTypeKey":"billboard","regionId":1,"districtId":2},{"id":287,"latitude":41.29920841842591,"longitude":69.23226928337364,"address":"пр-т Бунедкор, спуск с моста Камолон","pointTypeId":1,"pointTypeKey":"billboard","regionId":1,"districtId":7},{"id":288,"latitude":41.3076438112998,"longitude":69.29770017109277,"address":"ул. А. Кадирий, перед мостом (старый ТашМИ)","pointTypeId":1,"pointTypeKey":"billboard","regionId":1,"districtId":8},{"id":289,"latitude":41.23651122507353,"longitude":69.21387259430654,"address":"ул. Янги Сергели, ориентир - автосалон Лада","pointTypeId":1,"pointTypeKey":"billboard","regionId":1,"districtId":4},{"id":291,"latitude":41.3084304293756,"longitude":69.29828811569934,"address":"ул. Хамидуллы Арипова, Централ Парк","pointTypeId":1,"pointTypeKey":"billboard","regionId":1,"districtId":8},{"id":292,"latitude":41.35364503116998,"longitude":69.28801095579081,"address":"пр-т Амира Темура, клиника Медас","pointTypeId":1,"pointTypeKey":"billboard","regionId":1,"districtId":10},{"id":293,"latitude":41.27793224178182,"longitude":69.24490784877116,"address":"ул.Шота Руставели, напротив ресторана Канотчи","pointTypeId":1,"pointTypeKey":"billboard","regionId":1,"districtId":11},{"id":294,"latitude":41.312324420080316,"longitude":69.29593634792194,"address":"ул. А. Кадирий, недоезжая винзавода","pointTypeId":1,"pointTypeKey":"billboard","regionId":1,"districtId":8},{"id":295,"latitude":41.32306332303245,"longitude":69.27073859759737,"address":"ул. А. Кадирий, кафе Аль Азиз","pointTypeId":1,"pointTypeKey":"billboard","regionId":1,"districtId":10},{"id":296,"latitude":41.31489585223074,"longitude":69.28079255376278,"address":"пр-т Амира Темура пересечение с ул. Истиклол, ориентир - ОДО","pointTypeId":1,"pointTypeKey":"billboard","regionId":1,"districtId":10},{"id":297,"latitude":41.306112405863324,"longitude":69.28452288339173,"address":"ул. Истикбол, ориентир - Узбекнефтегаз","pointTypeId":1,"pointTypeKey":"billboard","regionId":1,"districtId":2},{"id":298,"latitude":41.26958821816015,"longitude":69.25593922763794,"address":"МКАД, Башлык","pointTypeId":1,"pointTypeKey":"billboard","regionId":1,"districtId":11},{"id":299,"latitude":41.32072048425769,"longitude":69.28201029361092,"address":"пр-т Амира Темура пересечение с ул. А. Кадирий, ориентир - Алайский рынок","pointTypeId":1,"pointTypeKey":"billboard","regionId":1,"districtId":10},{"id":300,"latitude":41.31166045210837,"longitude":69.2456642485051,"address":"пр-т И. Каримова, Узбоулинг","pointTypeId":1,"pointTypeKey":"billboard","regionId":1,"districtId":7},{"id":301,"latitude":41.26556553900293,"longitude":69.21850190403752,"address":"МКАД, недоезжая 16-й горбольницы","pointTypeId":1,"pointTypeKey":"billboard","regionId":1,"districtId":11},{"id":302,"latitude":41.28068571108563,"longitude":69.19505314267114,"address":"МКАД, недоезжая Фархадского рынка","pointTypeId":1,"pointTypeKey":"billboard","regionId":1,"districtId":9},{"id":303,"latitude":41.31593979887763,"longitude":69.28439236400392,"address":"ул. Шахрисабз, ориентир - офис Юселл","pointTypeId":1,"pointTypeKey":"billboard","regionId":1,"districtId":3},{"id":305,"latitude":41.31798046254558,"longitude":69.25401020928149,"address":"ул. Алмазар, ориентир Ташкент Сити","pointTypeId":1,"pointTypeKey":"billboard","regionId":1,"districtId":7},{"id":306,"latitude":41.30416290554068,"longitude":69.28070144625912,"address":"ул. Шахрисабз, ориентир - Урбан Фуд","pointTypeId":1,"pointTypeKey":"billboard","regionId":1,"districtId":2},{"id":307,"latitude":41.332944762598984,"longitude":69.28733487554429,"address":"МКАД, спуск с Софийского моста","pointTypeId":1,"pointTypeKey":"billboard","regionId":1,"districtId":10},{"id":308,"latitude":41.33416468074656,"longitude":69.28108223233639,"address":"МКАД, съезд с Софийского моста, ориентир - УзБАТ","pointTypeId":1,"pointTypeKey":"billboard","regionId":1,"districtId":10},{"id":309,"latitude":41.32286672253026,"longitude":69.24342513084413,"address":"ул. Себзор, ориентир - Цирк","pointTypeId":1,"pointTypeKey":"billboard","regionId":1,"districtId":7},{"id":310,"latitude":41.3335530922395,"longitude":69.28423107822566,"address":"пр*т Амира Темура, ориентир - Узтелеком","pointTypeId":1,"pointTypeKey":"billboard","regionId":1,"districtId":10},{"id":311,"latitude":41.2618833126905,"longitude":69.2275014419694,"address":"ул. Ш. Руставели, ориентир - мост Южного вокзала","pointTypeId":1,"pointTypeKey":"billboard","regionId":1,"districtId":11},{"id":274,"latitude":41.311370223836875,"longitude":69.20805216965933,"address":"ул. Нурафшан, ориентир - Шедевр Гарден","pointTypeId":1,"pointTypeKey":"billboard","regionId":1,"districtId":7},{"id":314,"latitude":41.24630989002804,"longitude":69.21802995893572,"address":"Янги Сергели, Узгариш ","pointTypeId":1,"pointTypeKey":"billboard","regionId":1,"districtId":4},{"id":316,"latitude":41.29953072882405,"longitude":69.27262684731076,"address":"ул. Афросиёб, напротив Angels Food","pointTypeId":1,"pointTypeKey":"billboard","regionId":1,"districtId":2},{"id":317,"latitude":41.29406896694646,"longitude":69.28852808711389,"address":"ул. Туркистон, ориентир - музей паровозов","pointTypeId":1,"pointTypeKey":"billboard","regionId":1,"districtId":2},{"id":319,"latitude":41.31272652301931,"longitude":69.28708934690545,"address":"ул. Шахрисабз, ориентир - супермаркет Дунё","pointTypeId":1,"pointTypeKey":"billboard","regionId":1,"districtId":3},{"id":320,"latitude":41.326773330404684,"longitude":69.235266899102,"address":"ул.  Сакичмон, внутри рынка Чорсу ","pointTypeId":1,"pointTypeKey":"billboard","regionId":1,"districtId":7},{"id":321,"latitude":41.32171704794347,"longitude":69.243384373832,"address":"ул. Фурката пересечение с ул. Навои","pointTypeId":1,"pointTypeKey":"billboard","regionId":1,"districtId":7},{"id":322,"latitude":41.29942931346785,"longitude":69.27354525641677,"address":"ул. Шахрисабз, напротив ресторана Ди Гави","pointTypeId":1,"pointTypeKey":"billboard","regionId":1,"districtId":2},{"id":323,"latitude":41.315800783165365,"longitude":69.28363675752921,"address":"ул.Шахрисабз, напротив Главпочтампта","pointTypeId":1,"pointTypeKey":"billboard","regionId":1,"districtId":3},{"id":327,"latitude":41.29999603332943,"longitude":69.29055159410198,"address":"ул. Нукус пересечение с ул. Истикбол","pointTypeId":1,"pointTypeKey":"billboard","regionId":1,"districtId":2},{"id":329,"latitude":41.322542061127415,"longitude":69.23595572554913,"address":"пр-т Беруний пересечение с ул. Саамарканд Дарвоза, ориентир - рынок Чорсу","pointTypeId":9,"pointTypeKey":"prizmatrons","regionId":1,"districtId":7},{"id":330,"latitude":41.3030845513297,"longitude":69.27924871162114,"address":"ул. Шахрисабз пересечение с пр-том Амира Темура, Автодорожный институт","pointTypeId":9,"pointTypeKey":"prizmatrons","regionId":1,"districtId":2},{"id":331,"latitude":41.28953942371346,"longitude":69.27438101515978,"address":"ул. Нукус пересечение с ул. Мирабадская,  ориентир - бизнес-центр Сигма","pointTypeId":9,"pointTypeKey":"prizmatrons","regionId":1,"districtId":2},{"id":338,"latitude":41.2913380750801,"longitude":69.27703655435569,"address":"ул. Нукус пересечение с ул.Авлиёота, напротив церкви","pointTypeId":9,"pointTypeKey":"prizmatrons","regionId":1,"districtId":2},{"id":341,"latitude":41.30769546293062,"longitude":69.29243867106727,"address":"ул. С. Азимова пересечение с ул. Махтумкули","pointTypeId":9,"pointTypeKey":"prizmatrons","regionId":1,"districtId":3},{"id":343,"latitude":41.311525772186336,"longitude":69.2872812057672,"address":"ул. Шахрисабз пересечение с ул. Узбекистон Овози, напротив гостиницы Тата","pointTypeId":9,"pointTypeKey":"prizmatrons","regionId":1,"districtId":3},{"id":336,"latitude":41.31369419849901,"longitude":69.28616672602084,"address":"ул.Шахрисабз пересечение с ул. Мустакиллик, напротив супермаркета Дунё","pointTypeId":9,"pointTypeKey":"prizmatrons","regionId":1,"districtId":3},{"id":351,"latitude":41.33249367202709,"longitude":69.21833569967853,"address":"пр-т Беруний пересечение с ул. Нурафшон, ориентир - Тинчлик маркет","pointTypeId":9,"pointTypeKey":"prizmatrons","regionId":1,"districtId":5},{"id":348,"latitude":41.3116007389749,"longitude":69.25386535901848,"address":"пр-т И. Каримова пересечение с ул. Олмазор, ориентир - МТРК","pointTypeId":9,"pointTypeKey":"prizmatrons","regionId":1,"districtId":7},{"id":353,"latitude":41.32475130793113,"longitude":69.23168564216348,"address":"пр-т Беруний пересечение с ул. Сакичмон, ориентир - рынок Чорсу","pointTypeId":9,"pointTypeKey":"prizmatrons","regionId":1,"districtId":7},{"id":339,"latitude":41.315392332712655,"longitude":69.32346884935558,"address":"ул. Паркентская, напротив Паркентсткого рынка","pointTypeId":9,"pointTypeKey":"prizmatrons","regionId":1,"districtId":8},{"id":342,"latitude":41.31160053060259,"longitude":69.24004777896349,"address":"пр-т Бунедкор пересечением с ул. И.Каримова, ориентир - Дворец Дружбы Народов","pointTypeId":9,"pointTypeKey":"prizmatrons","regionId":1,"districtId":9},{"id":354,"latitude":41.301852980704055,"longitude":69.24840007360496,"address":"ул. Фурката, ориентир БЦ The Tower ","pointTypeId":9,"pointTypeKey":"prizmatrons","regionId":1,"districtId":9},{"id":345,"latitude":41.305512875264824,"longitude":69.24615669313556,"address":"ул. Фурката, ориентир - теарт Мукими","pointTypeId":9,"pointTypeKey":"prizmatrons","regionId":1,"districtId":9},{"id":335,"latitude":41.31096565579287,"longitude":69.25335788883267,"address":"ул. Афросиёб пересечение с пр.И. Каримова, ориентир - Хумо Арена","pointTypeId":9,"pointTypeKey":"prizmatrons","regionId":1,"districtId":9},{"id":337,"latitude":41.311587846228065,"longitude":69.25309824691283,"address":"ул. Афросиёб пересечение с ул. И. Каримова,ориентир - Хумо Арена","pointTypeId":9,"pointTypeKey":"prizmatrons","regionId":1,"districtId":9},{"id":355,"latitude":41.338533185882454,"longitude":69.27326309711269,"address":"МКАД, напротив ТРЦ  Fleshka","pointTypeId":9,"pointTypeKey":"prizmatrons","regionId":1,"districtId":10},{"id":344,"latitude":41.31113415192745,"longitude":69.27488637190044,"address":"ул. Матбуотчилар, ориентир - ТЦ Пойтахт","pointTypeId":9,"pointTypeKey":"prizmatrons","regionId":1,"districtId":10},{"id":352,"latitude":41.30942163751043,"longitude":69.26810253577311,"address":"пр-т И. Каримова, ориентир - гостиница Лотте Ташкент","pointTypeId":9,"pointTypeKey":"prizmatrons","regionId":1,"districtId":10},{"id":347,"latitude":41.3096828934722,"longitude":69.26736982785161,"address":"ул. Ш. Рашидова пересечение с пр. И. Каримова","pointTypeId":9,"pointTypeKey":"prizmatrons","regionId":1,"districtId":10},{"id":340,"latitude":41.32073316102896,"longitude":69.28201245759485,"address":"пр. Амира Темура пересечение с ул. Кадирий, ориентир - Алайский рынок","pointTypeId":9,"pointTypeKey":"prizmatrons","regionId":1,"districtId":10},{"id":349,"latitude":41.328409952516985,"longitude":69.27460312843324,"address":"ул. Ш.Рашидова пересечение с ул. Осиё,ориентир - ресторан Джентельменс Паб","pointTypeId":9,"pointTypeKey":"prizmatrons","regionId":1,"districtId":10},{"id":350,"latitude":41.328448363620495,"longitude":69.27410089550003,"address":"ул. Ш. Рашидова пересечение с ул. Нурафшон,  ориентир - сервис-центр Артель","pointTypeId":9,"pointTypeKey":"prizmatrons","regionId":1,"districtId":10},{"id":332,"latitude":41.28542143853675,"longitude":69.253306388855,"address":"ул. Бобура, пересечение с ул.Ш. Рставели, ориентир - ТЦ Саодат","pointTypeId":9,"pointTypeKey":"prizmatrons","regionId":1,"districtId":11},{"id":325,"latitude":41.30702242985309,"longitude":69.26669382922883,"address":"ул. Ш. Рашидова, ориентир - ресторан Голубые Купола","pointTypeId":1,"pointTypeKey":"billboard","regionId":1,"districtId":11},{"id":315,"latitude":41.364900493599144,"longitude":69.28736392911256,"address":"ул. Ахмад Дониш, Юнусабадский рынок, бывший Универсам","pointTypeId":1,"pointTypeKey":"billboard","regionId":1,"districtId":10},{"id":324,"latitude":41.30279436757816,"longitude":69.27620602438756,"address":"ул. Т. Шевченко,  ориентир - 110-я школа","pointTypeId":1,"pointTypeKey":"billboard","regionId":1,"districtId":2},{"id":326,"latitude":41.30045132543024,"longitude":69.29013204695899,"address":"ул. Истикбол, ориентир - бывший винзавод","pointTypeId":1,"pointTypeKey":"billboard","regionId":1,"districtId":2},{"id":361,"latitude":41.28945641774661,"longitude":69.27423807389499,"address":"ул. Нукус пересечение с ул. Миробод","pointTypeId":8,"pointTypeKey":"led_screen","regionId":1,"districtId":2},{"id":364,"latitude":41.2912823024244,"longitude":69.22412183600345,"address":"ул. Мукимий,   метро Новза, ориентир - Макро","pointTypeId":5,"pointTypeKey":"stop","regionId":1,"districtId":9},{"id":363,"latitude":41.305534042569434,"longitude":69.30730053080526,"address":"пр-т М-Улугбек пересечение с ул. Махтумкули, перекресток Ташсельмаш","pointTypeId":5,"pointTypeKey":"stop","regionId":1,"districtId":8},{"id":362,"latitude":41.3163624433843,"longitude":69.29131223403715,"address":"пр-т Мустакиллик, площадь Хамида Олимжона, магазин Спортландия","pointTypeId":5,"pointTypeKey":"stop","regionId":1,"districtId":3},{"id":365,"latitude":41.29724813637456,"longitude":69.25030875269061,"address":"ул. Бобура, напротив ТЦ Некст","pointTypeId":5,"pointTypeKey":"stop","regionId":1,"districtId":11},{"id":366,"latitude":41.27405546200056,"longitude":69.25885003622626,"address":"ул. Бобура, напротив Яккасарайского РОВД","pointTypeId":5,"pointTypeKey":"stop","regionId":1,"districtId":11},{"id":367,"latitude":41.30632666036173,"longitude":69.27715024641041,"address":"ул. И. Каримова, ориентир - завод Фотон","pointTypeId":5,"pointTypeKey":"stop","regionId":1,"districtId":10},{"id":368,"latitude":41.31852607296294,"longitude":69.27243697423758,"address":"ул. Навои, на стороне БЦ Пойтахт","pointTypeId":5,"pointTypeKey":"stop","regionId":1,"districtId":10},{"id":369,"latitude":41.32234763465304,"longitude":69.24140630158061,"address":"пр-т А. Навои, площадь Хадра, возле Даврбанка","pointTypeId":5,"pointTypeKey":"stop","regionId":1,"districtId":7},{"id":370,"latitude":41.32517373331782,"longitude":69.32338499331578,"address":"пр-т Мустакиллик, бывший Туркуаз","pointTypeId":5,"pointTypeKey":"stop","regionId":1,"districtId":3},{"id":371,"latitude":41.32540555285165,"longitude":69.32252135059937,"address":"пр-т Мустакиллик,  напротив бывшего Туркуаз","pointTypeId":5,"pointTypeKey":"stop","regionId":1,"districtId":3},{"id":373,"latitude":41.31642363656624,"longitude":69.23161262865045,"address":"ул. Караташ,  ТРЦ Самарканд Дарвоза, со стороны крытой парковки","pointTypeId":5,"pointTypeKey":"stop","regionId":1,"districtId":7},{"id":374,"latitude":41.31492734041985,"longitude":69.23536350101503,"address":"ул. Караташ, возле Корзинки, недоезжая автозаправки","pointTypeId":5,"pointTypeKey":"stop","regionId":1,"districtId":7},{"id":375,"latitude":41.30768085292359,"longitude":69.29876983165742,"address":"ул. Махтумкули, вход с старый ТашМИ","pointTypeId":5,"pointTypeKey":"stop","regionId":1,"districtId":8},{"id":376,"latitude":41.3054403396492,"longitude":69.30590664868637,"address":"ул. Махтумкули, перекресток Ташсельмаш","pointTypeId":5,"pointTypeKey":"stop","regionId":1,"districtId":8},{"id":377,"latitude":41.30589731622628,"longitude":69.30621779091128,"address":"ул. Махтумкули, перекресток Ташсельмаш, со стороны детской площадки","pointTypeId":5,"pointTypeKey":"stop","regionId":1,"districtId":8},{"id":378,"latitude":41.306888563116985,"longitude":69.29134555340349,"address":"ул. С. Азимова, напротив НБУ Гузар","pointTypeId":5,"pointTypeKey":"stop","regionId":1,"districtId":2},{"id":379,"latitude":41.319554210070486,"longitude":69.30895258189582,"address":"ул. Паркентская, напротив военного училища","pointTypeId":5,"pointTypeKey":"stop","regionId":1,"districtId":8},{"id":381,"latitude":41.29834354849033,"longitude":69.27202606357632,"address":"ул. Шахрисабз, около Angels food","pointTypeId":5,"pointTypeKey":"stop","regionId":1,"districtId":2},{"id":382,"latitude":41.31255089626782,"longitude":69.2537344659572,"address":"ул. Олмазор,возле МТРК, напротив здания Лукоил","pointTypeId":5,"pointTypeKey":"stop","regionId":1,"districtId":7},{"id":383,"latitude":41.36422010004816,"longitude":69.28862035839687,"address":"ул. Ахмад Дониш, Юнусабадский рынок","pointTypeId":5,"pointTypeKey":"stop","regionId":1,"districtId":10},{"id":384,"latitude":41.299364796016434,"longitude":69.2728855683149,"address":"ул. Афросиёб, метро Ойфбек, супермаркет Узбегим","pointTypeId":5,"pointTypeKey":"stop","regionId":1,"districtId":2},{"id":385,"latitude":41.307162663349665,"longitude":69.28483735321619,"address":"ул. Шахрисабз, Узбекнефтегаз","pointTypeId":5,"pointTypeKey":"stop","regionId":1,"districtId":8},{"id":386,"latitude":41.297963886094685,"longitude":69.27231790048205,"address":"ул.Шахрисабз, метро Ойбек, возле магазина ECCO","pointTypeId":5,"pointTypeKey":"stop","regionId":1,"districtId":2},{"id":387,"latitude":41.29482994456971,"longitude":69.28261971284498,"address":"ул. Нукус, ориентир - здание Узтелеком","pointTypeId":5,"pointTypeKey":"stop","regionId":1,"districtId":2},{"id":388,"latitude":41.2953990172867,"longitude":69.28411316808577,"address":"ул. Нукус, напротив школы №94","pointTypeId":5,"pointTypeKey":"stop","regionId":1,"districtId":2},{"id":389,"latitude":41.29698213847141,"longitude":69.28661298705136,"address":"ул.Нукус, 12-этажки после парка Железнодорожников","pointTypeId":5,"pointTypeKey":"stop","regionId":1,"districtId":2},{"id":390,"latitude":41.296581559437605,"longitude":69.28541884043658,"address":"ул. Нукус, хокимият Мирабадского района","pointTypeId":5,"pointTypeKey":"stop","regionId":1,"districtId":2},{"id":391,"latitude":41.286796202008965,"longitude":69.271394025553,"address":"ул. Нукус, Макро","pointTypeId":5,"pointTypeKey":"stop","regionId":1,"districtId":2},{"id":392,"latitude":41.30610615215369,"longitude":69.27687886779069,"pointTypeId":5,"pointTypeKey":"stop","regionId":1,"districtId":10},{"id":393,"latitude":41.30546935276425,"longitude":69.26606297775572,"address":"ул.Ш. Рашидова, метро Космонавтов, напротив ж/д 40б","pointTypeId":5,"pointTypeKey":"stop","regionId":1,"districtId":2},{"id":394,"latitude":41.3033814634509,"longitude":69.26798676700993,"address":"ул. Афросиёб, возле БЦ Баракат","pointTypeId":5,"pointTypeKey":"stop","regionId":1,"districtId":2},{"id":395,"latitude":41.31843225002359,"longitude":69.27139412445945,"address":"ул. Ш. Рашидова,  пересечение с ул. Навои напротив БЦ Пойтахт","pointTypeId":5,"pointTypeKey":"stop","regionId":1,"districtId":10},{"id":396,"latitude":41.29344981727335,"longitude":69.279530856141,"address":"ул. Ойбек пересечение с ул. Нукус","pointTypeId":5,"pointTypeKey":"stop","regionId":1,"districtId":2},{"id":397,"latitude":41.29650574671541,"longitude":69.27613734633796,"address":"ул. Ойбек пересечение с ул. Фидокор, около СНБ г. Ташкента","pointTypeId":5,"pointTypeKey":"stop","regionId":1,"districtId":2},{"id":398,"latitude":41.29873532919798,"longitude":69.2895687586149,"address":"ул. Нукус в сторону Первушки, напротив ж/д №4 со стороны дежурной аптеки","pointTypeId":5,"pointTypeKey":"stop","regionId":1,"districtId":2},{"id":399,"latitude":41.291428955149755,"longitude":69.27779818585408,"address":"ул. Нукус, напротив Мирабадского рынка, около церкви","pointTypeId":5,"pointTypeKey":"stop","regionId":1,"districtId":2},{"id":400,"latitude":41.32351615338951,"longitude":69.31633506070825,"address":"пр-т Мустакиллик, недоезжая моста Салар в направлении метро Пушкина, напротив Обл управления статистики","pointTypeId":5,"pointTypeKey":"stop","regionId":1,"districtId":3},{"id":358,"latitude":41.30006684628762,"longitude":69.2914752627404,"address":"ул. Нукус пересечение с ул. Фаргона Йули","pointTypeId":8,"pointTypeKey":"led_screen","regionId":1,"districtId":2},{"id":356,"latitude":41.325855113250974,"longitude":69.32780961304375,"address":"ул. Буюк Ипак Йули, ориентир метро Буюк Ипак Йули","pointTypeId":9,"pointTypeKey":"prizmatrons","regionId":1,"districtId":3},{"id":401,"latitude":41.319601811421634,"longitude":69.29871189092157,"address":"пр-т Мустакиллик, ориентир ЗАГС Мирзо-Улугбекского района","pointTypeId":5,"pointTypeKey":"stop","regionId":1,"districtId":3},{"id":402,"latitude":41.32331301676969,"longitude":69.3166452843523,"address":"пр-т Мустакиллик, школа №71","pointTypeId":5,"pointTypeKey":"stop","regionId":1,"districtId":3},{"id":403,"latitude":41.305103133046295,"longitude":69.23655020699444,"address":"пр-т Бунёдкор, ориентир Олий Мажлис","pointTypeId":5,"pointTypeKey":"stop","regionId":1,"districtId":9},{"id":404,"latitude":41.28011974813146,"longitude":69.25574608880761,"address":"ул.Бобура пересечение с ул. Нукус, напротив ж/д №2б","pointTypeId":5,"pointTypeKey":"stop","regionId":1,"districtId":11},{"id":405,"latitude":41.27198039233314,"longitude":69.25938970954824,"address":"ул. Бобура, перед мостом аэропорта, ориентир РОВД Яккасарайского  района","pointTypeId":5,"pointTypeKey":"stop","regionId":1,"districtId":11},{"id":406,"latitude":41.28455398759219,"longitude":69.26667344789684,"address":"ул. Нукус, напротив ж/д №100, ориентир- Российское посольство","pointTypeId":5,"pointTypeKey":"stop","regionId":1,"districtId":11},{"id":407,"latitude":41.276300351561574,"longitude":69.25738549858318,"address":"ул. Бобура, возле ж/д №46, ориентир - котельная","pointTypeId":5,"pointTypeKey":"stop","regionId":1,"districtId":11},{"id":408,"latitude":41.27673080855196,"longitude":69.25764083579715,"address":"ул. Нукус, около ж/д №67, в направлении от аэропорта в город","pointTypeId":5,"pointTypeKey":"stop","regionId":1,"districtId":11},{"id":409,"latitude":41.28399091929531,"longitude":69.26466361601172,"address":"ул. Нукус пересечение с ул. Глинки, ориентир  -  ОблГАИ","pointTypeId":5,"pointTypeKey":"stop","regionId":1,"districtId":11},{"id":410,"latitude":41.2817854030181,"longitude":69.25879418849946,"address":"ул. Нукус, около детского реабилитационного центра","pointTypeId":5,"pointTypeKey":"stop","regionId":1,"districtId":11},{"id":411,"latitude":41.315588902585375,"longitude":69.28090524327807,"address":"пр-т Амира Темура, напротив гостиницы City Palace","pointTypeId":5,"pointTypeKey":"stop","regionId":1,"districtId":10},{"id":412,"latitude":41.31880003502797,"longitude":69.28122711151312,"address":"пр-т Амира Темура, около ж/д №4, напротив центрального входа Алайского рынка","pointTypeId":5,"pointTypeKey":"stop","regionId":1,"districtId":10},{"id":413,"latitude":41.32907542954895,"longitude":69.28337931632997,"address":"пр-т Амира Темура, ориентир - кинотеатр Казахстан","pointTypeId":5,"pointTypeKey":"stop","regionId":1,"districtId":10},{"id":414,"latitude":41.33818366748122,"longitude":69.28507768981689,"address":"пр-т Амира Темура, гостиница Интерконтиненталь, ориентир - Ташкентлэнд","pointTypeId":5,"pointTypeKey":"stop","regionId":1,"districtId":10},{"id":415,"latitude":41.32925760225929,"longitude":69.2838127521984,"address":"пр-т Амира Темура, напротив кинотеатра Казахстан","pointTypeId":5,"pointTypeKey":"stop","regionId":1,"districtId":10},{"id":416,"latitude":41.33408686284721,"longitude":69.28481160746621,"address":"пр-т Амира Темура, ориентир - гостиница Редисон","pointTypeId":5,"pointTypeKey":"stop","regionId":1,"districtId":10},{"id":417,"latitude":41.32658755642246,"longitude":69.28324949395707,"address":"пр-т Амира Темура, ориентир - меторо Минор","pointTypeId":5,"pointTypeKey":"stop","regionId":1,"districtId":10},{"id":418,"latitude":41.32734487710552,"longitude":69.28302097101036,"address":"пр-т Амира Темура пересечение с ул. Осиё, напротив метро Минор","pointTypeId":5,"pointTypeKey":"stop","regionId":1,"districtId":10},{"id":419,"latitude":41.30721261063919,"longitude":69.28382241067351,"address":"ул. Истикбол пересечение с ул. Шахрисабз, напротив Весминстерского  университета","pointTypeId":5,"pointTypeKey":"stop","regionId":1,"districtId":8},{"id":420,"latitude":41.30258961649947,"longitude":69.27853953492692,"address":"ул. Шахрисабз, ориентир Музей искусств, напротив Автодорожного института","pointTypeId":5,"pointTypeKey":"stop","regionId":1,"districtId":2},{"id":421,"latitude":41.30493418569047,"longitude":69.27822840433299,"address":"пр-т Амира Темура пересечение с ул.И. Каримова, напротив Областного Хокимията","pointTypeId":5,"pointTypeKey":"stop","regionId":1,"districtId":10},{"id":422,"latitude":41.28158457524589,"longitude":69.25549506010753,"address":"ул. Бобура, пересечение с ул. Нукус","pointTypeId":5,"pointTypeKey":"stop","regionId":1,"districtId":11},{"id":423,"latitude":41.321454231230625,"longitude":69.25335573647973,"address":"пр-т А. Навои, ориентир - кафе Барлос","pointTypeId":5,"pointTypeKey":"stop","regionId":1,"districtId":7},{"id":424,"latitude":41.310011660308156,"longitude":69.26566931331536,"address":"пр-т И. Каримова, пересечение с ул. Ш. Рашидова, ориентир - кафе Бархан","pointTypeId":5,"pointTypeKey":"stop","regionId":1,"districtId":11},{"id":425,"latitude":41.32179432754115,"longitude":69.24800017469704,"address":"пр-т А. Навои,  ориентир школа №59, Химико-технологический институт","pointTypeId":5,"pointTypeKey":"stop","regionId":1,"districtId":7},{"id":426,"latitude":41.32077574378646,"longitude":69.25762344029468,"address":"пр-т А. Навои, дворец искусств","pointTypeId":5,"pointTypeKey":"stop","regionId":1,"districtId":7},{"id":427,"latitude":41.30067703259418,"longitude":69.27649570861297,"address":"ул. Т. Шевченко пересечение с ул. Шахрисабз, на стороне Айриш Паб","pointTypeId":5,"pointTypeKey":"stop","regionId":1,"districtId":2},{"id":428,"latitude":41.32164439984599,"longitude":69.24472332000734,"address":"пр-т А. Навои, напротив Академического театра драмы","pointTypeId":5,"pointTypeKey":"stop","regionId":1,"districtId":7},{"id":429,"latitude":41.3034496084811,"longitude":69.24798595685782,"address":"ул. Фуркат, Бешагач, напротив парка А. Навои","pointTypeId":5,"pointTypeKey":"stop","regionId":1,"districtId":9},{"id":430,"latitude":41.303675275514614,"longitude":69.24744843306286,"address":"ул. Фурката, Бешагач, на стороне парка Навои","pointTypeId":5,"pointTypeKey":"stop","regionId":1,"districtId":9},{"id":431,"latitude":41.30149427551441,"longitude":69.27744841103836,"address":"ул. Шахрисабз, Государственный комитет геологии","pointTypeId":5,"pointTypeKey":"stop","regionId":1,"districtId":2},{"id":432,"latitude":41.30238250949441,"longitude":69.2795147911459,"address":"пр-т Амира Темура пересечение с ул. Шахрисабз, Автодорожный институт","pointTypeId":5,"pointTypeKey":"stop","regionId":1,"districtId":2},{"id":433,"latitude":41.3214139197334,"longitude":69.2484748814002,"address":"пр-т Навои ","pointTypeId":5,"pointTypeKey":"stop","regionId":1,"districtId":7},{"id":434,"latitude":41.32059131184206,"longitude":69.26145937204096,"address":"пр-т А. Навои, около Архитектурного института","pointTypeId":5,"pointTypeKey":"stop","regionId":1,"districtId":7},{"id":435,"latitude":41.320246405896945,"longitude":69.26649963981873,"address":"пр-т Навои,  около Министерства  Сельского и водного  хозяйства","pointTypeId":5,"pointTypeKey":"stop","regionId":1,"districtId":10},{"id":436,"latitude":41.319173133400746,"longitude":69.27106368887375,"address":"пр-т Навои, дворец Туркистон","pointTypeId":5,"pointTypeKey":"stop","regionId":1,"districtId":10},{"id":437,"latitude":41.317213277758576,"longitude":69.27956606787757,"address":"пр-т А. Навои, гостиница Windham","pointTypeId":5,"pointTypeKey":"stop","regionId":1,"districtId":10},{"id":438,"latitude":41.31160070327503,"longitude":69.24171928547324,"address":"пр-т И. Каримова, площадь Дружбы народов","pointTypeId":5,"pointTypeKey":"stop","regionId":1,"districtId":9},{"id":439,"latitude":41.28826322854843,"longitude":69.25212942862615,"address":"ул. Бобура, напротив парка Дустлик","pointTypeId":5,"pointTypeKey":"stop","regionId":1,"districtId":11},{"id":440,"latitude":41.29633156684349,"longitude":69.25013817863002,"address":"ул. Бобура, около ж/д №8, недоезжая ТРЦ Некст","pointTypeId":5,"pointTypeKey":"stop","regionId":1,"districtId":11},{"id":441,"latitude":41.29267199763352,"longitude":69.25054907798769,"address":"ул. Бобура, ориентир - кафе-бистро БЕК","pointTypeId":5,"pointTypeKey":"stop","regionId":1,"districtId":11},{"id":442,"latitude":41.29201425781821,"longitude":69.25094606187727,"address":"ул. Бобура, ориентир - ЗАГС Яккасарайского района","pointTypeId":5,"pointTypeKey":"stop","regionId":1,"districtId":11},{"id":443,"latitude":41.32203679695455,"longitude":69.24451088748876,"address":"пр-т А. Навои, около здания Узкимёсаноат","pointTypeId":5,"pointTypeKey":"stop","regionId":1,"districtId":7},{"id":444,"latitude":41.31486211702598,"longitude":69.29041960807254,"address":"ул. Шастри, ориентир - музей М. Ашрафи","pointTypeId":5,"pointTypeKey":"stop","regionId":1,"districtId":3},{"id":445,"latitude":41.310002677598355,"longitude":69.27119028255349,"address":"ул. Бухара, возле театра А. Навои","pointTypeId":5,"pointTypeKey":"stop","regionId":1,"districtId":2},{"id":446,"latitude":41.31128315068016,"longitude":69.24014420317222,"address":"пр-т Бунёдкор пересечение с ул. И. Каримова, ориентир - площадь Дружбы Народов","pointTypeId":5,"pointTypeKey":"stop","regionId":1,"districtId":7},{"id":447,"latitude":41.32598565792908,"longitude":69.3287354735977,"address":"ул.Буюк Ипак Йули, метро М.Горький, около ж/д №58","pointTypeId":5,"pointTypeKey":"stop","regionId":1,"districtId":3},{"id":448,"latitude":41.30036742135622,"longitude":69.26765835411318,"address":"ул. Миробод, дорога в сторону Жемчуга","pointTypeId":5,"pointTypeKey":"stop","regionId":1,"districtId":2},{"id":449,"latitude":41.342343921052986,"longitude":69.28627933358506,"address":"пр-т Амира Темура, напротив входа в Аквапарк, ориентир - ТАТУ","pointTypeId":5,"pointTypeKey":"stop","regionId":1,"districtId":10},{"id":450,"latitude":41.32793539968573,"longitude":69.28269589668936,"address":"пр-т А. Темура пересечение с ул. Осиё, ориентир - кафе Бистрофф","pointTypeId":5,"pointTypeKey":"stop","regionId":1,"districtId":10},{"id":451,"latitude":41.30003618555368,"longitude":69.2674094579848,"address":"ул. Миробод,  ориентир - ЗАГС Мирабадского района","pointTypeId":5,"pointTypeKey":"stop","regionId":1,"districtId":2},{"id":452,"latitude":41.29975009000693,"longitude":69.28289866258253,"address":"пр-т А. Темура, пересечение с ул. Фидокор, ориентир - ГАК Узбекистон Хаво Йуллари","pointTypeId":5,"pointTypeKey":"stop","regionId":1,"districtId":2},{"id":453,"latitude":41.3219080677458,"longitude":69.303513123856,"address":"ул.Оккургон пересечение с пр. Мустакиллик,ориентир - Физкультурный институт","pointTypeId":5,"pointTypeKey":"stop","regionId":1,"districtId":3},{"id":454,"latitude":41.319838692502394,"longitude":69.29993605141921,"address":"пр-т Мустакиллик, БЦ Дархан","pointTypeId":5,"pointTypeKey":"stop","regionId":1,"districtId":3},{"id":455,"latitude":41.314219704053755,"longitude":69.25401878044016,"address":"ул. Олмазор, ориентир - Государственная консерватория","pointTypeId":5,"pointTypeKey":"stop","regionId":1,"districtId":7},{"id":457,"latitude":41.297055601484374,"longitude":69.28554539172785,"address":"пр. А. Темура пересечение с ул. Нукус, около ж/д №16","pointTypeId":5,"pointTypeKey":"stop","regionId":1,"districtId":2},{"id":458,"latitude":41.29389157879357,"longitude":69.28824271340986,"address":"ул. Туркестон, напротив центрального входа Северного вокзала","pointTypeId":5,"pointTypeKey":"stop","regionId":1,"districtId":2},{"id":459,"latitude":41.296316333736506,"longitude":69.28149104118349,"address":"ул. Т.Шевченко, выезд на ул. Нукус, напротив школы №94","pointTypeId":5,"pointTypeKey":"stop","regionId":1,"districtId":2},{"id":460,"latitude":41.30784842780981,"longitude":69.2706537528203,"address":"ул. И. Каримова, ЦУМ, автостоянка","pointTypeId":5,"pointTypeKey":"stop","regionId":1,"districtId":2},{"id":461,"latitude":41.30256301658072,"longitude":69.27982699242818,"address":"ул. А. Темур, ориентир - кафе Браззери","pointTypeId":5,"pointTypeKey":"stop","regionId":1,"districtId":2},{"id":462,"latitude":41.31256220918934,"longitude":69.29176176315971,"address":"ул. Шастри пересечение с ул. Узбекистон Овози,  около памятника Шастри","pointTypeId":5,"pointTypeKey":"stop","regionId":1,"districtId":3},{"id":463,"latitude":41.30559738711075,"longitude":69.2462907979345,"address":"ул. Фурката, ориентир - театр Мукими","pointTypeId":5,"pointTypeKey":"stop","regionId":1,"districtId":9},{"id":464,"latitude":41.322179500771554,"longitude":69.27365024216071,"address":"ул. А. Кадирий пересечение с ул. Ш.Рашидова","pointTypeId":5,"pointTypeKey":"stop","regionId":1,"districtId":10},{"id":465,"latitude":41.323399292940515,"longitude":69.27310642471804,"address":"ул. Ш.Рашидова, ориентир - Монумент Мужества","pointTypeId":5,"pointTypeKey":"stop","regionId":1,"districtId":10},{"id":466,"latitude":41.31156052253296,"longitude":69.24393710371243,"address":"пр-т И. Каримова, ориентир - Узбоулинг","pointTypeId":5,"pointTypeKey":"stop","regionId":1,"districtId":9},{"id":467,"latitude":41.34270201489924,"longitude":69.28587803901041,"address":"пр-т Амира Темура, ориентир - Аквапарк","pointTypeId":5,"pointTypeKey":"stop","regionId":1,"districtId":10},{"id":468,"latitude":41.33868784722231,"longitude":69.33843004799327,"address":"ул. Дурмон йули пересечение с ул. Мирзо Улугбека,  напротив памятника Мирзо Улугбека","pointTypeId":5,"pointTypeKey":"stop","regionId":1,"districtId":3},{"id":469,"latitude":41.30925397766078,"longitude":69.27956845260898,"address":"пр-т Амира Темура, ориентир - куранты","pointTypeId":5,"pointTypeKey":"stop","regionId":1,"districtId":10},{"id":470,"latitude":41.314594503857236,"longitude":69.28741979662068,"address":"пр-т Мустакиллик пересечение с ул. Яхъё Гуламова, около ресторана Ёлки-Палки","pointTypeId":5,"pointTypeKey":"stop","regionId":1,"districtId":3},{"id":357,"latitude":41.32642075097854,"longitude":69.3272634763564,"address":"ул. Буюк Ипак Йули, ориентир - метро ","pointTypeId":8,"pointTypeKey":"led_screen","regionId":1,"districtId":3},{"id":215,"latitude":41.30173133607952,"longitude":69.2480836093505,"address":"ул. Байналминал пересечение с ул. Бобура","pointTypeId":8,"pointTypeKey":"led_screen","regionId":1,"districtId":9},{"id":360,"latitude":41.31373870602553,"longitude":69.28666019878749,"address":"ул. Шахрисабз  пересечение с ул.  Мустакиллик, ориентир - супермаркет Дунё","pointTypeId":8,"pointTypeKey":"led_screen","regionId":1,"districtId":3},{"id":346,"latitude":41.30293205300857,"longitude":69.28772983391903,"address":"ул. Истикбол пересечение с ул. С. Азимова, ориентир -  ресторан Эфенди","pointTypeId":9,"pointTypeKey":"prizmatrons","regionId":1,"districtId":2},{"id":145,"latitude":41.34534381718033,"longitude":69.20714221003463,"address":"ул. Фаробий, на пересечении с ул. Университетской. Ориентир - метро Беруний","pointTypeId":9,"pointTypeKey":"prizmatrons","regionId":1,"districtId":5},{"id":212,"latitude":41.21264156069792,"longitude":69.22881352100386,"address":"ул. Янги Сиргали,  ориентир - кафе Гранд Азия,на крыше ж/д№1, напротив Ярмарки","pointTypeId":12,"pointTypeKey":"roof_constructors","regionId":1,"districtId":4},{"id":471,"latitude":41.322322931541514,"longitude":69.28234716180452,"address":"пр-т Амира Темура,  около Юлдуз Боулинга","pointTypeId":5,"pointTypeKey":"stop","regionId":1,"districtId":10},{"id":472,"latitude":41.263396387859046,"longitude":69.26513277793035,"address":"Аэропорт международных авиалиний","pointTypeId":5,"pointTypeKey":"stop","regionId":1,"districtId":11},{"id":473,"latitude":41.263492365201586,"longitude":69.26536025029742,"address":"аэропорт международных авиалиний","pointTypeId":5,"pointTypeKey":"stop","regionId":1,"districtId":11},{"id":474,"latitude":41.26361727824699,"longitude":69.26563707594103,"address":"аэропорт международных авиалиний","pointTypeId":5,"pointTypeKey":"stop","regionId":1,"districtId":11},{"id":475,"latitude":41.26374717806415,"longitude":69.26589025732136,"address":"аэропорт международных авиалиний","pointTypeId":5,"pointTypeKey":"stop","regionId":1,"districtId":11},{"id":476,"latitude":41.30881484730788,"longitude":69.287311344317,"address":"ул. Махтумкули, ориентир Родильный дом №6","pointTypeId":5,"pointTypeKey":"stop","regionId":1,"districtId":2},{"id":477,"latitude":41.325961451300415,"longitude":69.25389111324614,"address":"ул. А. Кадирий пересечение с ул. Абая, ориентир  - Корзинка","pointTypeId":5,"pointTypeKey":"stop","regionId":1,"districtId":7},{"id":478,"latitude":41.329040831608964,"longitude":69.23732911231791,"address":"ул. Заркайнар,напротив супермаркета","pointTypeId":5,"pointTypeKey":"stop","regionId":1,"districtId":7},{"id":479,"latitude":41.304892474635935,"longitude":69.24713732225024,"address":"ул. Фуркат, напротив парка Навои, ориентир - аптека Журабек","pointTypeId":5,"pointTypeKey":"stop","regionId":1,"districtId":9},{"id":480,"latitude":41.316487505493676,"longitude":69.31719342660953,"address":"ул. Паркентская пересечение с ул. М. Улугбек, ориентир - кафе Летний Сад","pointTypeId":5,"pointTypeKey":"stop","regionId":1,"districtId":8},{"id":481,"latitude":41.314783625760654,"longitude":69.32557137059307,"address":"ул. Паркентская, со стороны рынка, недоезжая автозаправки","pointTypeId":5,"pointTypeKey":"stop","regionId":1,"districtId":8},{"id":482,"latitude":41.286327763396,"longitude":69.25345437271268,"address":"ул. Бобура, пересечение с ул. Ш.Руставели,  ориентир - площадь Пушкина","pointTypeId":5,"pointTypeKey":"stop","regionId":1,"districtId":11},{"id":483,"latitude":41.292852573257484,"longitude":69.2859531606441,"address":"ул. Т.Шевченко, пересечение с МКАД (Северный вокзал), ориентир - военторг","pointTypeId":5,"pointTypeKey":"stop","regionId":1,"districtId":2},{"id":484,"latitude":41.27745981991736,"longitude":69.24457522376842,"address":"ул. Ш. Руставели, пересечение с ул. Мукими (Текстиль), ориентир  - магазин Оскар","pointTypeId":5,"pointTypeKey":"stop","regionId":1,"districtId":11},{"id":485,"latitude":41.339569974302925,"longitude":69.28857850276478,"address":"ул. Богишамол,  ориентир - Институт связи","pointTypeId":5,"pointTypeKey":"stop","regionId":1,"districtId":10},{"id":486,"latitude":41.36426750260433,"longitude":69.28875317241469,"address":"ул. А. Дониш, ориентир - Юнусабадский рынок","pointTypeId":5,"pointTypeKey":"stop","regionId":1,"districtId":10},{"id":487,"latitude":41.32470134991522,"longitude":69.32438277789522,"pointTypeId":5,"pointTypeKey":"stop","regionId":1,"districtId":3},{"id":488,"latitude":41.32791535859726,"longitude":69.34285460772259,"address":"ул. Буюк Ипак Йули, ориентир - Корзинка Салом","pointTypeId":5,"pointTypeKey":"stop","regionId":1,"districtId":3},{"id":489,"latitude":41.328040953356236,"longitude":69.34219479560853,"address":"ул. Буюк Ипак Йули, напротив  Корзинка Салом","pointTypeId":5,"pointTypeKey":"stop","regionId":1,"districtId":3},{"id":490,"latitude":41.319352115486204,"longitude":69.28184188668753,"address":"пр-т Амира Темура, центральный вход Алайского рынка","pointTypeId":5,"pointTypeKey":"stop","regionId":1,"districtId":10},{"id":491,"latitude":41.31946075263453,"longitude":69.28186337827044,"address":"пр-т Амира Темура, центральный вход Алайского рынка","pointTypeId":5,"pointTypeKey":"stop","regionId":1,"districtId":10},{"id":492,"latitude":41.31954855976625,"longitude":69.281870906345,"address":"пр-т Амира Темура, центральный вход Алайского рынка","pointTypeId":5,"pointTypeKey":"stop","regionId":1,"districtId":10},{"id":493,"latitude":41.319617665309124,"longitude":69.28188488398285,"address":"пр-т Амира Темура, центральный вход Алайского рынка","pointTypeId":5,"pointTypeKey":"stop","regionId":1,"districtId":10},{"id":494,"latitude":41.30804106781776,"longitude":69.28517747553602,"address":"ул. Шахрисабз, напротив Родильного дома №6","pointTypeId":10,"pointTypeKey":"city_format","regionId":1,"districtId":8},{"id":495,"latitude":41.30777204356477,"longitude":69.28491026032718,"address":"ул. Шахрисабз, около здания Узенгил саноат, Радиокомитет","pointTypeId":10,"pointTypeKey":"city_format","regionId":1,"districtId":8},{"id":496,"latitude":41.297252095592995,"longitude":69.27037490198919,"address":"ул. Шахрисабз, около ж/д №3, ориентир Ипак Йули Мирабадский ф-л","pointTypeId":10,"pointTypeKey":"city_format","regionId":1,"districtId":2},{"id":497,"latitude":41.29700149686264,"longitude":69.27065491111152,"address":"ул. Шахрисабз, в направлении от круга в сторону метро Ойбек","pointTypeId":10,"pointTypeKey":"city_format","regionId":1,"districtId":2},{"id":498,"latitude":41.29055674864589,"longitude":69.27574574947359,"address":"ул. Нукус, около Мирабадского рынка","pointTypeId":10,"pointTypeKey":"city_format","regionId":1,"districtId":2},{"id":499,"latitude":41.29787041592813,"longitude":69.27132974894457,"address":"ул. Шахрисабз, на стороне Angels Food, подземные гаражи","pointTypeId":10,"pointTypeKey":"city_format","regionId":1,"districtId":2},{"id":500,"latitude":41.299880811821325,"longitude":69.27503117445059,"address":"ул. Шахрисабз, ориентир - Чехов Лайт","pointTypeId":10,"pointTypeKey":"city_format","regionId":1,"districtId":2},{"id":501,"latitude":41.30043760192511,"longitude":69.27584231464992,"address":"ул. Шахрисабз, ориентир - бар Smokkin","pointTypeId":10,"pointTypeKey":"city_format","regionId":1,"districtId":2},{"id":502,"latitude":41.30057703845369,"longitude":69.27548826305996,"address":"ул. Шахрисабз, около ж/д №15, ориентир метро Минг Урик","pointTypeId":10,"pointTypeKey":"city_format","regionId":1,"districtId":2},{"id":503,"latitude":41.29389807161535,"longitude":69.28119287405701,"address":"ул. Нукус, около ж/д №19","pointTypeId":10,"pointTypeKey":"city_format","regionId":1,"districtId":2},{"id":504,"latitude":41.29385279469178,"longitude":69.28161993981473,"address":"ул. Нукус, ориентир - Фабрика похудения","pointTypeId":10,"pointTypeKey":"city_format","regionId":1,"districtId":2},{"id":505,"latitude":41.2977211663899,"longitude":69.28786738783121,"address":"ул. Нукус, ориентир 13-этажки, около ж/д№17","pointTypeId":10,"pointTypeKey":"city_format","regionId":1,"districtId":2},{"id":506,"latitude":41.29824849299656,"longitude":69.28876199409626,"address":"ул. Нукус, ориентир - 13-этажки, около ж/д№13","pointTypeId":10,"pointTypeKey":"city_format","regionId":1,"districtId":2},{"id":507,"latitude":41.29894812877037,"longitude":69.28920717895033,"address":"ул. Нукус, со стороны  бутика Гламур,около ж/д №4","pointTypeId":10,"pointTypeKey":"city_format","regionId":1,"districtId":2},{"id":508,"latitude":41.29916514277175,"longitude":69.28955576688845,"address":"ул. Нукус, около ж/д №4 со стороны бутика Гламур","pointTypeId":10,"pointTypeKey":"city_format","regionId":1,"districtId":2},{"id":509,"latitude":41.29874254274587,"longitude":69.28888535060524,"address":"ул. Нукус, около ж/д №4 со стороны бутика Гламур","pointTypeId":10,"pointTypeKey":"city_format","regionId":1,"districtId":2},{"id":510,"latitude":41.297336802142254,"longitude":69.28662693028731,"address":"ул. Нукус,со стороны бутика Гламур, около офиса Широкий формат","pointTypeId":10,"pointTypeKey":"city_format","regionId":1,"districtId":2},{"id":511,"latitude":41.29491760044282,"longitude":69.28276687154016,"address":"ул.Нукус, возле здания Узбектелеком","pointTypeId":10,"pointTypeKey":"city_format","regionId":1,"districtId":2},{"id":512,"latitude":41.2944067377283,"longitude":69.28197276529188,"address":"ул. Нукус, около здания Узбектелеком","pointTypeId":10,"pointTypeKey":"city_format","regionId":1,"districtId":2},{"id":513,"latitude":41.301559382100855,"longitude":69.2764860278581,"address":"ул. Т. Шевченко, возле памятника Зульфияхоним","pointTypeId":10,"pointTypeKey":"city_format","regionId":1,"districtId":2},{"id":514,"latitude":41.30220512622122,"longitude":69.27628112058818,"address":"ул. Т. Шевченко, возле памятника Зульфияхоним","pointTypeId":10,"pointTypeKey":"city_format","regionId":1,"districtId":2},{"id":515,"latitude":41.30164740377482,"longitude":69.2771061789178,"address":"ул. Шахрисабз, возле памятника Зульфияхоним, напротив Госкомгеологии","pointTypeId":10,"pointTypeKey":"city_format","regionId":1,"districtId":2},{"id":516,"latitude":41.30386941242502,"longitude":69.26537095370038,"address":"ул. Мирабад, около МВД РУз","pointTypeId":10,"pointTypeKey":"city_format","regionId":1,"districtId":2},{"id":517,"latitude":41.3032580510859,"longitude":69.2654665558999,"address":"ул. Мирабад, около МВД РУз","pointTypeId":10,"pointTypeKey":"city_format","regionId":1,"districtId":2},{"id":518,"latitude":41.30264996476105,"longitude":69.26571544854762,"address":"ул. Мирабад, около МВД РУз","pointTypeId":10,"pointTypeKey":"city_format","regionId":1,"districtId":2},{"id":519,"latitude":41.30310725211112,"longitude":69.26588918945893,"address":"ул. Мирабад, около МВД РУз","pointTypeId":10,"pointTypeKey":"city_format","regionId":1,"districtId":2},{"id":520,"latitude":41.303705100320975,"longitude":69.2657132142436,"address":"ул. Мирабад, около МВД РУз","pointTypeId":10,"pointTypeKey":"city_format","regionId":1,"districtId":2},{"id":521,"latitude":41.30436278163403,"longitude":69.26569068338462,"address":"ул. Мирабад, около МВД РУз","pointTypeId":10,"pointTypeKey":"city_format","regionId":1,"districtId":2},{"id":522,"latitude":41.30659672731904,"longitude":69.26652124693615,"address":"ул. Ш. Рашидова, около кафе Голубые Купола","pointTypeId":10,"pointTypeKey":"city_format","regionId":1,"districtId":2},{"id":523,"latitude":41.305875581885175,"longitude":69.26621424649714,"address":"ул.Ш. Рашидова, напротив ж/д №40","pointTypeId":10,"pointTypeKey":"city_format","regionId":1,"districtId":2},{"id":524,"latitude":41.30576096116897,"longitude":69.26572825376475,"address":"ул. Ш. Рашидова, около ж/д №40","pointTypeId":10,"pointTypeKey":"city_format","regionId":1,"districtId":2},{"id":525,"latitude":41.30648487358679,"longitude":69.26604149465051,"address":"ул. Ш. Рашидова,около ж/д №40а","pointTypeId":10,"pointTypeKey":"city_format","regionId":1,"districtId":2},{"id":527,"latitude":41.30933942578267,"longitude":69.26836109852688,"address":"пр-т И. Каримова, около гостиницы Тошкент Лотте","pointTypeId":10,"pointTypeKey":"city_format","regionId":1,"districtId":10},{"id":528,"latitude":41.309286284992844,"longitude":69.26861116392274,"address":"пр-т И. Каримова, около гостиницы Тошкент Лотте","pointTypeId":10,"pointTypeKey":"city_format","regionId":1,"districtId":10},{"id":526,"latitude":41.309179907956974,"longitude":69.26789443372088,"address":"пр-т И. Каримова, напротив гостиницы Тошкент Лотте","pointTypeId":10,"pointTypeKey":"city_format","regionId":1,"districtId":10},{"id":529,"latitude":41.317297911029634,"longitude":69.27911453334879,"address":"пр-т Навои, около гостиницы Windham","pointTypeId":10,"pointTypeKey":"city_format","regionId":1,"districtId":10},{"id":530,"latitude":41.317509160736655,"longitude":69.27822947502138,"address":"пр-т А. Навои, около гостиницы Windham","pointTypeId":10,"pointTypeKey":"city_format","regionId":1,"districtId":10},{"id":531,"latitude":41.31780487505,"longitude":69.27691517847457,"address":"пр-т А. Навои, около центра Tayota","pointTypeId":10,"pointTypeKey":"city_format","regionId":1,"districtId":10},{"id":532,"latitude":41.31811172775532,"longitude":69.2755973676552,"address":"пр-т А. Навои, около супермаркета Шедевр","pointTypeId":10,"pointTypeKey":"city_format","regionId":1,"districtId":10},{"id":533,"latitude":41.32040837583946,"longitude":69.26368116202099,"address":"пр-т А. Навои,  возле здания Трастбанк","pointTypeId":10,"pointTypeKey":"city_format","regionId":1,"districtId":7},{"id":534,"latitude":41.31516484684201,"longitude":69.28535764242123,"address":"ул. Шахрисабз,около ж/д №5","pointTypeId":10,"pointTypeKey":"city_format","regionId":1,"districtId":3},{"id":535,"latitude":41.315624342101046,"longitude":69.2846989631653,"address":"ул. Шахрисабз, около ж/д №5","pointTypeId":10,"pointTypeKey":"city_format","regionId":1,"districtId":3},{"id":536,"latitude":41.31608448361956,"longitude":69.28302204169869,"address":"ул. Шахрисабз, напротив Главпочтампта","pointTypeId":10,"pointTypeKey":"city_format","regionId":1,"districtId":3},{"id":537,"latitude":41.3162956057542,"longitude":69.28214764373098,"address":"ул. Шахрисабз, напротив Главпочтампта","pointTypeId":10,"pointTypeKey":"city_format","regionId":1,"districtId":3},{"id":538,"latitude":41.31884357242692,"longitude":69.28158652752111,"address":"пр-т Амира Темура, недоезжая остановки  Алайского рынка","pointTypeId":10,"pointTypeKey":"city_format","regionId":1,"districtId":10},{"id":539,"latitude":41.319026155986705,"longitude":69.28163276763905,"address":"пр-т Амира Темура, перед остановкой Алайского рынка","pointTypeId":10,"pointTypeKey":"city_format","regionId":1,"districtId":10},{"id":540,"latitude":41.319870923936115,"longitude":69.28181934419759,"address":"пр-т Амира Темура, после остановки Алайского рынка","pointTypeId":10,"pointTypeKey":"city_format","regionId":1,"districtId":10},{"id":541,"latitude":41.32164199183962,"longitude":69.28233647220367,"address":"пр-т Амира Темура, напротив здания Узбекинвест ","pointTypeId":10,"pointTypeKey":"city_format","regionId":1,"districtId":10},{"id":542,"latitude":41.33554374995025,"longitude":69.2850422859192,"address":"пр-т Амира Темура, гостиница Реддисон, около школы №70","pointTypeId":10,"pointTypeKey":"city_format","regionId":1,"districtId":10},{"id":543,"latitude":41.32800547263544,"longitude":69.2815789733587,"address":"ул. Осиё, напротив ж/д №54","pointTypeId":10,"pointTypeKey":"city_format","regionId":1,"districtId":10},{"id":544,"latitude":41.32806996223847,"longitude":69.28095137916509,"address":"ул. Осиё, ориентир -магазин Бель стор","pointTypeId":10,"pointTypeKey":"city_format","regionId":1,"districtId":10},{"id":545,"latitude":41.3282343024073,"longitude":69.2793924321793,"address":"ул. Осиё, около ж/д №87","pointTypeId":10,"pointTypeKey":"city_format","regionId":1,"districtId":10},{"id":546,"latitude":41.328345505012614,"longitude":69.27819945499563,"address":"ул. Осиё, около ж/д №88","pointTypeId":10,"pointTypeKey":"city_format","regionId":1,"districtId":10},{"id":547,"latitude":41.32617903699683,"longitude":69.27390897713069,"address":"ул. Ш. Рашидова, около ж/д 71, ориентир - ресторан Облака","pointTypeId":10,"pointTypeKey":"city_format","regionId":1,"districtId":10},{"id":548,"latitude":41.32558199730333,"longitude":69.27373301919813,"address":"ул. Ш. Рашидова, около ж/д 72, ориентир - ресторан Облака","pointTypeId":10,"pointTypeKey":"city_format","regionId":1,"districtId":10},{"id":549,"latitude":41.321310834489246,"longitude":69.27253997169439,"address":"ул. Ш. Рашидова, около ж/д №19","pointTypeId":10,"pointTypeKey":"city_format","regionId":1,"districtId":10},{"id":550,"latitude":41.317173946911296,"longitude":69.2797572551575,"address":"пр-т А. Навои, гостиница Windham","pointTypeId":10,"pointTypeKey":"city_format","regionId":1,"districtId":10},{"id":551,"latitude":41.31719328146018,"longitude":69.28087091572054,"address":"пр-т Амира Темура,гостиница Windham","pointTypeId":10,"pointTypeKey":"city_format","regionId":1,"districtId":10},{"id":552,"latitude":41.31756638903076,"longitude":69.28095889061164,"address":"пр-т Амира Темура, гостиница Windham","pointTypeId":10,"pointTypeKey":"city_format","regionId":1,"districtId":10},{"id":553,"latitude":41.270699948436594,"longitude":69.26034121444717,"address":"ул.Бобура, въезд на мост Аэропорта, со стороны биржи","pointTypeId":10,"pointTypeKey":"city_format","regionId":1,"districtId":11},{"id":554,"latitude":41.32304233951835,"longitude":69.27091240882875,"address":"ул. А. Кадирий, кафе Аль Азиз","pointTypeId":10,"pointTypeKey":"city_format","regionId":1,"districtId":7},{"id":555,"latitude":41.320255291946694,"longitude":69.30089949148575,"address":"пр-т Мустакиллик, Бизнес-центр Дархан","pointTypeId":10,"pointTypeKey":"city_format","regionId":1,"districtId":3},{"id":556,"latitude":41.318836319211464,"longitude":69.29768191700805,"address":"пр-т Мустакиллик, около ж/д №66, со стороны БЦ Дархан","pointTypeId":10,"pointTypeKey":"city_format","regionId":1,"districtId":3},{"id":557,"latitude":41.32072267788282,"longitude":69.30217512435689,"address":"пр-т Мустакиллик, через дорогу от ж/д №79, со стороны БЦ Дархан","pointTypeId":10,"pointTypeKey":"city_format","regionId":1,"districtId":3},{"id":558,"latitude":41.32530492901372,"longitude":69.326323728266,"address":"пр-т Мустакиллик, около ж/д №68","pointTypeId":10,"pointTypeKey":"city_format","regionId":1,"districtId":3},{"id":559,"latitude":41.32602114545246,"longitude":69.3290293360183,"address":"ул. Буюк Ипак Йули, около выхода из метро, в пешеходной зоне","pointTypeId":10,"pointTypeKey":"city_format","regionId":1,"districtId":3},{"id":560,"latitude":41.3261016734921,"longitude":69.32789540134374,"address":"ул. Буюк Ипак Йули, выход из метров сторону супермаркетов","pointTypeId":10,"pointTypeKey":"city_format","regionId":1,"districtId":3},{"id":561,"latitude":41.32615477690214,"longitude":69.32829013929835,"address":"ул. Буюк Ипак Йули, выход из метро в сторону супермаркетов","pointTypeId":10,"pointTypeKey":"city_format","regionId":1,"districtId":3},{"id":562,"latitude":41.32622091289149,"longitude":69.32876015148523,"address":"ул. Буюк Ипак Йули, выход из метро в сторону супермаркетов","pointTypeId":10,"pointTypeKey":"city_format","regionId":1,"districtId":3},{"id":563,"latitude":41.32168047398285,"longitude":69.30345298555282,"address":"ул. Оккургон, около Института Физкультуры, ориентир - соц панно","pointTypeId":10,"pointTypeKey":"city_format","regionId":1,"districtId":3},{"id":564,"latitude":41.32356570035358,"longitude":69.30393464749147,"address":"ул. Оккургон, около Института Физкультуры, возле ж/д №16","pointTypeId":10,"pointTypeKey":"city_format","regionId":1,"districtId":3},{"id":565,"latitude":41.32252108339444,"longitude":69.30367827132878,"address":"ул. Оккургон, около Института физкультуры","pointTypeId":10,"pointTypeKey":"city_format","regionId":1,"districtId":3},{"id":566,"latitude":41.32145508368238,"longitude":69.30299377284948,"address":"ул. Оккургон, напротив Института физкультуры, возле ж/д №79","pointTypeId":10,"pointTypeKey":"city_format","regionId":1,"districtId":3},{"id":567,"latitude":41.32443705506157,"longitude":69.30383160797352,"address":"ул.Оккургон, ориентир - кафе Бон","pointTypeId":10,"pointTypeKey":"city_format","regionId":1,"districtId":3},{"id":568,"latitude":41.2662841473126,"longitude":69.26359850383503,"address":"ул. Бобура, въезд на мост со стороны аэропорта","pointTypeId":10,"pointTypeKey":"city_format","regionId":1,"districtId":11},{"id":569,"latitude":41.26604310486345,"longitude":69.26342578307329,"address":"ул. Бобура, въезд на мост со стороны аэропорта","pointTypeId":10,"pointTypeKey":"city_format","regionId":1,"districtId":11},{"id":570,"latitude":41.36720663047651,"longitude":69.28544793954657,"address":"пр-т Амира Темура, круг Юнусабад","pointTypeId":8,"pointTypeKey":"led_screen","regionId":1,"districtId":10},{"id":571,"latitude":41.33844901122346,"longitude":69.25678575760551,"address":"ул. Нурафшан пересечение с ул. Себзор","pointTypeId":8,"pointTypeKey":"led_screen","regionId":1,"districtId":5},{"id":572,"latitude":41.33788469260469,"longitude":69.22449624648186,"address":"ул. Нурафшан пересечение с ул. Фаробий","pointTypeId":8,"pointTypeKey":"led_screen","regionId":1,"districtId":5},{"id":574,"latitude":41.29640744975981,"longitude":69.21591964665136,"address":"ул.Мукимий пересечение с ул. Катартал, перекресток Спорттовары, поворот на оптовый рынок","pointTypeId":8,"pointTypeKey":"led_screen","regionId":1,"districtId":9},{"id":575,"latitude":41.33961729930771,"longitude":69.28543170217165,"address":"пр-т Амира Темура,  пересечение с ул.Богишамол, ориентир  - Ташкентлэнд","pointTypeId":8,"pointTypeKey":"led_screen","regionId":1,"districtId":10},{"id":576,"latitude":41.2776879671583,"longitude":69.14577447709502,"address":"ТКАД, Скобяной рынок Изза, на фасаде Китайского торгового  дома","pointTypeId":8,"pointTypeKey":"led_screen","regionId":1,"districtId":9},{"id":577,"latitude":41.337797696086184,"longitude":69.2245327155798,"address":"ул. Нурафшон пересечение с ул. Фаробий, перекресток Чигатай","pointTypeId":8,"pointTypeKey":"led_screen","regionId":1,"districtId":5},{"id":578,"latitude":41.338432601243845,"longitude":69.25678456007907,"address":"ул. Нурафшон пересечение с ул. Себзор","pointTypeId":8,"pointTypeKey":"led_screen","regionId":1,"districtId":7},{"id":579,"latitude":41.340324694748894,"longitude":69.27004552013643,"address":"МКАД пересечение с ул. Ифтихор, ориентир рынок Малика","pointTypeId":8,"pointTypeKey":"led_screen","regionId":1,"districtId":10},{"id":580,"latitude":41.31161458539251,"longitude":69.2400509062516,"address":"пр-т Бунёдкор пересечение с ул. И.Каримова, ориентир - площадь Дружбы Народов","pointTypeId":8,"pointTypeKey":"led_screen","regionId":1,"districtId":9},{"id":581,"latitude":41.26523842994229,"longitude":69.2643496152865,"address":"ул. Бобура, выезд из аэропорта слевои и правой стороны моста","pointTypeId":8,"pointTypeKey":"led_screen","regionId":1,"districtId":11},{"id":582,"latitude":41.30061014131967,"longitude":69.21045755900978,"address":"ул. Сеул (Байналминал) пересечение с ул. Лутфий, ориентир - круг Октепа","pointTypeId":8,"pointTypeKey":"led_screen","regionId":1,"districtId":9},{"id":583,"latitude":41.55962704831505,"longitude":64.19647090283898,"address":"ОКОЛО ПОСТА ГАИ И МРО","pointTypeId":1,"pointTypeKey":"billboard","regionId":8,"districtId":113},{"id":584,"latitude":41.56366468131272,"longitude":64.18917342373699,"address":"ОКОЛО БАЗЫ ОТДЫХА ЖЕМЧУЖИНА. ТРАССА  А379","pointTypeId":1,"pointTypeKey":"billboard","regionId":8,"districtId":113},{"id":585,"latitude":41.577382288829874,"longitude":64.20023918151857,"address":"около таможенного склада","pointTypeId":1,"pointTypeKey":"billboard","regionId":8,"districtId":113},{"id":586,"latitude":41.32478434994776,"longitude":69.3044582646234,"address":"ул. Оккургон, перекресток стадиона  Ёшлик (бывший Старт)","pointTypeId":8,"pointTypeKey":"led_screen","regionId":1,"districtId":3},{"id":600,"latitude":41.286001923130215,"longitude":69.18591642552587,"address":"ул. Фархадская пересечение с ул. Лутфий, ориентир - перекресток  Фархадского рынка","pointTypeId":8,"pointTypeKey":"led_screen","regionId":1,"districtId":9},{"id":587,"latitude":41.31997163411051,"longitude":69.2819319969762,"address":"пр-т Амира Темура, Алайский рынок центральный вход,  возле Эвоса","pointTypeId":8,"pointTypeKey":"led_screen","regionId":1,"districtId":10},{"id":591,"latitude":41.29825625477266,"longitude":69.27288335928027,"address":"ул. Шахрисабз, метро Ойбек, ориентир Les Ailes","pointTypeId":8,"pointTypeKey":"led_screen","regionId":1,"districtId":2},{"id":597,"latitude":41.311447622888174,"longitude":69.2867846454387,"address":"ул. Шахрисабзпересечение с ул. Узбекистон Овози, ориентир - гостиница Le Grand Plaza (Tata)","pointTypeId":8,"pointTypeKey":"led_screen","regionId":1,"districtId":3},{"id":594,"latitude":41.32877533153551,"longitude":69.27488263204701,"address":"ул. Осиё пересечение с ул. Ш. Рашидова, ориентир - Пожарка","pointTypeId":8,"pointTypeKey":"led_screen","regionId":1,"districtId":10},{"id":602,"latitude":41.29909794492004,"longitude":69.27406873475233,"address":"ул. Шахрисабз пересечение с ул. Ойбек, ориентир - ресторан Di Gavi","pointTypeId":8,"pointTypeKey":"led_screen","regionId":1,"districtId":2},{"id":592,"latitude":41.29940826032568,"longitude":69.29099464790079,"address":"ул. Нукус пересечение с ул. Истикбол, ориентир - перекресток Первушка","pointTypeId":8,"pointTypeKey":"led_screen","regionId":1,"districtId":2},{"id":601,"latitude":41.31729482919657,"longitude":69.31639839096789,"address":"ул. Паркентская перекресток Шастри","pointTypeId":8,"pointTypeKey":"led_screen","regionId":1,"districtId":8},{"id":595,"latitude":41.303147372604606,"longitude":69.28744876856523,"address":"ул. С. Азимова пересечение с ул. Истикбол, ориентир - ресторан Эфенди","pointTypeId":8,"pointTypeKey":"led_screen","regionId":1,"districtId":2},{"id":598,"latitude":41.307843647072545,"longitude":69.29201173845416,"address":"ул. Махтумкули пересечение с ул. С. Азимова, ориентир - лицей  им. Успенского","pointTypeId":8,"pointTypeKey":"led_screen","regionId":1,"districtId":3},{"id":589,"latitude":41.29571180535849,"longitude":69.26874305387159,"address":"ул. Ш. Руставели пересечение с ул. Миробод, круг на гостинице Россия","pointTypeId":8,"pointTypeKey":"led_screen","regionId":1,"districtId":11},{"id":599,"latitude":41.32748832389259,"longitude":69.28357030530591,"address":"пр-т Амира Темура пересечение с ул. Осиё, ориентир - метро Минор","pointTypeId":8,"pointTypeKey":"led_screen","regionId":1,"districtId":10},{"id":603,"latitude":41.2842250229311,"longitude":69.23627972602846,"address":"ул. Мукимий, ориентир - ресторан Гутен","pointTypeId":12,"pointTypeKey":"roof_constructors","regionId":1,"districtId":9},{"id":593,"latitude":41.316976495488206,"longitude":69.2807207204934,"address":"пр-т Амира Темура пересечение с ул. А. Навои, ориентир - гостиница Windham","pointTypeId":8,"pointTypeKey":"led_screen","regionId":1,"districtId":10},{"id":596,"latitude":41.31852607311436,"longitude":69.27201318803914,"address":"ул. Ш. Рашидова пересечение с ул. А. Навои, ориентир - БЦ Пойтахт","pointTypeId":8,"pointTypeKey":"led_screen","regionId":1,"districtId":10},{"id":590,"latitude":41.311466970609686,"longitude":69.24335002051401,"address":"пр-т И. Каримова,  площадь Дружбы Народов","pointTypeId":8,"pointTypeKey":"led_screen","regionId":1,"districtId":9},{"id":588,"latitude":41.30176896116067,"longitude":69.24803851904615,"address":"ул. Фурката пересечение с ул. Сеул,  недоезжая ТРЦ Некст","pointTypeId":8,"pointTypeKey":"led_screen","regionId":1,"districtId":9},{"id":604,"latitude":41.33495197094325,"longitude":69.27997425850751,"address":"МКАД пересечение с ул. Ш. Рашидова, ориентир - НБУ","pointTypeId":9,"pointTypeKey":"prizmatrons","regionId":1,"districtId":10},{"id":605,"latitude":41.293608128766124,"longitude":69.28015409508993,"address":"ул. Нукусская пересечение с ул. Ойбек, на крыше ж/д №19","pointTypeId":9,"pointTypeKey":"prizmatrons","regionId":1,"districtId":2},{"id":606,"latitude":41.27394338077369,"longitude":69.3096993208198,"address":"ул. Фаргона Йули, ориентир - Рисовый рынок","pointTypeId":12,"pointTypeKey":"roof_constructors","regionId":1,"districtId":2},{"id":607,"latitude":41.33880626538078,"longitude":69.2852032241119,"address":"пр-т Амира Темура, ориентир - гостиница Интерконтиненталь","pointTypeId":9,"pointTypeKey":"prizmatrons","regionId":1,"districtId":10},{"id":608,"latitude":41.33482680893693,"longitude":69.27914356181135,"address":"Пр. Ш. Рашидова пересечение с  МКАД, напротив Финансового института","pointTypeId":9,"pointTypeKey":"prizmatrons","regionId":1,"districtId":10},{"id":609,"latitude":41.28298185384497,"longitude":69.25072610378267,"address":"ул. Ш. Руставели, въезд на рынок Аския","pointTypeId":9,"pointTypeKey":"prizmatrons","regionId":1,"districtId":11},{"id":610,"latitude":41.311260632737685,"longitude":69.24006486128224,"address":"пр-т Бунёдкор пересечение с ул. И. Каримова, ориентир - площадь Дружбы Народов","pointTypeId":9,"pointTypeKey":"prizmatrons","regionId":1,"districtId":9},{"id":611,"latitude":41.32435570269236,"longitude":69.26448044335204,"address":"ул. А. Кадыри, напротив Гостиницы RAMADA","pointTypeId":1,"pointTypeKey":"billboard","regionId":1,"districtId":7},{"id":612,"latitude":41.30340851666044,"longitude":69.28728246845304,"address":"ул. Истикбол пересечение с ул. С. Азимова, напротив школы №145","pointTypeId":1,"pointTypeKey":"billboard","regionId":1,"districtId":2},{"id":613,"latitude":41.28479020307792,"longitude":69.2526497829905,"address":"ул. Ш. Руставели пересечение с ул. Бабура, остановка Фрунзенский ТЦ","pointTypeId":9,"pointTypeKey":"prizmatrons","regionId":1,"districtId":11},{"id":614,"latitude":41.28992701807687,"longitude":69.27427907676035,"address":"ул. Мирабад пересечение с ул. Нукус, ориентир - Госпитальный рынок","pointTypeId":9,"pointTypeKey":"prizmatrons","regionId":1,"districtId":2},{"id":615,"latitude":41.32679460850372,"longitude":69.24553548285475,"address":"ул. Себзор, метро Г. Гулама, ориентир - Хадра Мебель","pointTypeId":1,"pointTypeKey":"billboard","regionId":1,"districtId":7},{"id":616,"latitude":41.31867444181319,"longitude":69.2818924095589,"address":"пр-т Амира Темура,  справа от центрального входа Алайского рынка","pointTypeId":1,"pointTypeKey":"billboard","regionId":1,"districtId":10},{"id":617,"latitude":41.307415719255935,"longitude":69.2845540899677,"address":"ул. Шахрисабз, напротив Узбекнефтегаз","pointTypeId":9,"pointTypeKey":"prizmatrons","regionId":1,"districtId":2},{"id":618,"latitude":41.34726065457986,"longitude":69.21601617210143,"address":"ул. Чимбой пересечение с МКАД, Вузгородок","pointTypeId":9,"pointTypeKey":"prizmatrons","regionId":1,"districtId":5},{"id":619,"latitude":41.34765532253139,"longitude":69.2165408423116,"address":"ул. Чимбой пересечение с МКАД, Вузгородок","pointTypeId":9,"pointTypeKey":"prizmatrons","regionId":1,"districtId":5},{"id":620,"latitude":41.293266352642135,"longitude":69.19395554976542,"address":"МКАД, Чиланзар 14-квартал, напротив кафе День и Ночь","pointTypeId":1,"pointTypeKey":"billboard","regionId":1,"districtId":9},{"id":621,"latitude":41.321147936575905,"longitude":69.31200818455652,"address":"МКАД, съезд с моста возле метро Пушкина","pointTypeId":1,"pointTypeKey":"billboard","regionId":1,"districtId":3},{"id":622,"latitude":41.32232285395216,"longitude":69.21401953508008,"address":"ул. Кукча Дарвоза,  напротив медколледжа","pointTypeId":1,"pointTypeKey":"billboard","regionId":1,"districtId":7},{"id":623,"latitude":41.322301962686765,"longitude":69.21904933400455,"address":"ул. КукчаДарвоза, напротив городской больницы №1","pointTypeId":1,"pointTypeKey":"billboard","regionId":1,"districtId":7},{"id":624,"latitude":41.28369625892365,"longitude":69.19475485902808,"address":"МКАД, Фархадский рынок автозапчастей","pointTypeId":9,"pointTypeKey":"prizmatrons","regionId":1,"districtId":6},{"id":625,"latitude":41.29126203945084,"longitude":69.19403278701537,"address":"ул. Лутфий, напротив ресторана Афруз","pointTypeId":1,"pointTypeKey":"billboard","regionId":1,"districtId":6},{"id":626,"latitude":41.32199737174227,"longitude":69.21418632673505,"address":"ул. Кукча Дарвоза, Городская больница №1, около Медколледжа","pointTypeId":1,"pointTypeKey":"billboard","regionId":1,"districtId":7},{"id":627,"latitude":41.3459058506371,"longitude":69.25962345279217,"address":"ул. А. Дониша пересечение с МКАД, ориентир - мост","pointTypeId":1,"pointTypeKey":"billboard","regionId":1,"districtId":10},{"id":628,"latitude":41.26836891141681,"longitude":69.25292210562422,"address":"МКАД,Башлык","pointTypeId":1,"pointTypeKey":"billboard","regionId":1,"districtId":11},{"id":629,"latitude":41.3309969903836,"longitude":69.22169929151559,"address":"пр-т Беруний, напротив кинотеатра Гунча","pointTypeId":1,"pointTypeKey":"billboard","regionId":1,"districtId":7},{"id":630,"latitude":41.33905436176814,"longitude":69.20757365479007,"address":"пр-т Беруний пересечение с МКАД, ориентир Орзу","pointTypeId":9,"pointTypeKey":"prizmatrons","regionId":1,"districtId":5},{"id":631,"latitude":41.33840265603738,"longitude":69.25551326647935,"address":"ул. Нурафшон, пересечение с ул. Себзор, напротив ресторана Икат","pointTypeId":1,"pointTypeKey":"billboard","regionId":1,"districtId":7},{"id":632,"latitude":41.32096354789323,"longitude":69.21010995350244,"address":"ул.Нурафшон, на отрезке Кукча-Октепа","pointTypeId":1,"pointTypeKey":"billboard","regionId":1,"districtId":7},{"id":633,"latitude":41.324030179367284,"longitude":69.21118179750492,"address":"Ул. Нурафшон, на отрезке Кукча - Гунча","pointTypeId":1,"pointTypeKey":"billboard","regionId":1,"districtId":7},{"id":634,"latitude":41.21976456654288,"longitude":69.22423873729733,"address":"ул. Янги Сергели, перекресток Хокимията Сергелинского района","pointTypeId":9,"pointTypeKey":"prizmatrons","regionId":1,"districtId":4},{"id":635,"latitude":41.35059427013739,"longitude":69.35252977756512,"address":"ул. Т. Малика пересечение с пр. Мустакиллик, ориентир Экобозор","pointTypeId":1,"pointTypeKey":"billboard","regionId":1,"districtId":3},{"id":636,"latitude":41.329408157047574,"longitude":69.34662580490114,"address":"Ул. Буюк Ипак Йули, после чайханы Салом, на мосту","pointTypeId":1,"pointTypeKey":"billboard","regionId":1,"districtId":3},{"id":637,"latitude":41.25343170601857,"longitude":69.21688735485078,"address":"ул. Янги Сергели пересечение с Ул. Саади, около ж/д моста Сергели","pointTypeId":9,"pointTypeKey":"prizmatrons","regionId":1,"districtId":4},{"id":638,"latitude":41.246203416454605,"longitude":69.21846985816957,"address":"ул. Янги Сергели, на развилке после спуска с ТКАД","pointTypeId":1,"pointTypeKey":"billboard","regionId":1,"districtId":4},{"id":640,"latitude":41.31526015641821,"longitude":69.32091748003721,"address":"Ул. Паркентская, около Паркентского рынка","pointTypeId":1,"pointTypeKey":"billboard","regionId":1,"districtId":8},{"id":641,"latitude":41.23243184921405,"longitude":69.21599577979323,"address":"ул. Янги Сергели, возле авторынка","pointTypeId":1,"pointTypeKey":"billboard","regionId":1,"districtId":4},{"id":642,"latitude":41.31481129815526,"longitude":69.3253698845048,"address":"Ул. Паркентская, после Паркентского рынка","pointTypeId":1,"pointTypeKey":"billboard","regionId":1,"districtId":8},{"id":643,"latitude":41.248592386042326,"longitude":69.18104578333191,"address":"пр-т Бунёдкор, выезд из города в сторону Самарканда","pointTypeId":1,"pointTypeKey":"billboard","regionId":1,"districtId":9},